%time,field.position.x,field.position.y,field.position.z,field.orientation.x,field.orientation.y,field.orientation.z,field.orientation.w
1431530346149054025,0.0,0.0,100.3,-0.0914162081199,-0.0228547913231,0.862582755619,-0.497063099731
1431530346170138075,0.0,0.0,100.3,-0.0914162081199,-0.0228547913231,0.862582755619,-0.497063099731
1431530346186934594,0.0,0.0,100.3,-0.0914162081199,-0.0228547913231,0.862582755619,-0.497063099731
1431530346210962323,0.0,0.0,100.3,-0.0919133058632,-0.0204009180423,0.861391951383,-0.499138911368
1431530346227969420,0.0,0.0,100.3,-0.0919133058632,-0.0204009180423,0.861391951383,-0.499138911368
1431530346249527172,0.0,0.0,100.3,-0.0919133058632,-0.0204009180423,0.861391951383,-0.499138911368
1431530346270906962,0.0,0.0,100.3,-0.0919133058632,-0.0204009180423,0.861391951383,-0.499138911368
1431530346291322818,0.0,0.0,100.3,-0.0934365877482,-0.0144251304246,0.860732489974,-0.50020105996
1431530346316099377,0.0,0.0,100.3,-0.0934365877482,-0.0144251304246,0.860732489974,-0.50020105996
1431530346332841266,0.0,0.0,100.3,-0.0934365877482,-0.0144251304246,0.860732489974,-0.50020105996
1431530346350958605,0.0,0.0,100.3,-0.0934365877482,-0.0144251304246,0.860732489974,-0.50020105996
1431530346371698889,0.0,0.0,100.3,-0.0934365877482,-0.0144251304246,0.860732489974,-0.50020105996
1431530346389547179,0.0,0.0,100.3,-0.0934365877482,-0.0144251304246,0.860732489974,-0.50020105996
1431530346405656304,0.0,0.0,100.3,-0.0934365877482,-0.0144251304246,0.860732489974,-0.50020105996
1431530346429813162,0.0,0.0,100.3,-0.0823853468495,-0.0110182026158,0.860875388105,-0.501980896041
1431530346447930212,0.0,0.0,100.3,-0.0823853468495,-0.0110182026158,0.860875388105,-0.501980896041
1431530346468897624,0.0,0.0,100.3,-0.0823853468495,-0.0110182026158,0.860875388105,-0.501980896041
1431530346490000174,0.0,0.0,100.3,-0.0823853468495,-0.0110182026158,0.860875388105,-0.501980896041
1431530346509827342,0.0,0.0,100.3,-0.0676561074987,-0.0102868883477,0.862278737381,-0.501789009552
1431530346526969306,0.0,0.0,100.3,-0.0676561074987,-0.0102868883477,0.862278737381,-0.501789009552
1431530346552345156,0.0,0.0,100.3,-0.0676561074987,-0.0102868883477,0.862278737381,-0.501789009552
1431530346573648793,0.0,0.0,100.3,-0.0676561074987,-0.0102868883477,0.862278737381,-0.501789009552
1431530346592772350,0.0,0.0,100.3,-0.0499829755946,-0.0128528679945,0.864441332893,-0.500077681887
1431530346610863444,0.0,0.0,100.5,-0.0499829755946,-0.0128528679945,0.864441332893,-0.500077681887
1431530346631779095,0.0,0.0,100.5,-0.0499829755946,-0.0128528679945,0.864441332893,-0.500077681887
1431530346654078557,0.0,0.0,100.5,-0.0405820084197,-0.0134425883425,0.864638846255,-0.500571736075
1431530346672661723,0.0,0.0,100.5,-0.0406402469354,-0.0132654784216,0.8668136659,-0.496796201697
1431530346690247545,0.0,0.0,100.5,-0.0406402469354,-0.0132654784216,0.8668136659,-0.496796201697
1431530346710786922,0.0,0.0,100.5,-0.0406402469354,-0.0132654784216,0.8668136659,-0.496796201697
1431530346729639505,0.0,0.0,100.5,-0.032325393895,-0.00849238114386,0.867080481768,-0.497045658375
1431530346747741465,0.0,0.0,100.5,-0.032383864414,-0.00826661681551,0.870527619052,-0.490983312181
1431530346766626047,0.0,0.0,100.5,-0.032383864414,-0.00826661681551,0.870527619052,-0.490983312181
1431530346786506419,0.0,0.0,100.5,-0.032383864414,-0.00826661681551,0.870527619052,-0.490983312181
1431530346809545834,0.0,0.0,100.5,-0.026543991334,-0.00797262413719,0.870622445381,-0.491170450443
1431530346827388149,0.0,0.0,100.5,-0.0266326837286,-0.007671138702,0.876135685664,-0.481267196155
1431530346849726073,0.0,0.0,100.3,-0.0266326837286,-0.007671138702,0.876135685664,-0.481267196155
1431530346870422467,0.0,0.0,100.3,-0.0266326837286,-0.007671138702,0.876135685664,-0.481267196155
1431530346889602414,0.0,0.0,100.3,-0.0279673034918,-0.00343005212868,0.876176745432,-0.481165642417
1431530346912048667,0.0,0.0,100.3,-0.0280043977739,-0.00311272027793,0.881576187684,-0.471200053042
1431530346932599977,0.0,0.0,100.3,-0.0280043977739,-0.00311272027793,0.881576187684,-0.471200053042
1431530346952573004,0.0,0.0,100.3,-0.0280043977739,-0.00311272027793,0.881576187684,-0.471200053042
1431530346968327955,0.0,0.0,100.3,-0.0350810881607,-0.000968063182124,0.881486345542,-0.470903602376
1431530346987905267,0.0,0.0,100.3,-0.0350892988018,-0.000600834804491,0.886366763124,-0.461651753311
1431530347008601007,0.0,0.0,100.5,-0.0350892988018,-0.000600834804491,0.886366763124,-0.461651753311
1431530347025421871,0.0,0.0,100.5,-0.0350892988018,-0.000600834804491,0.886366763124,-0.461651753311
1431530347056063474,0.0,0.0,100.5,-0.044401093404,-0.00509342891003,0.889696920856,-0.454358876776
1431530347071020889,0.0,0.0,100.5,-0.044401093404,-0.00509342891003,0.889696920856,-0.454358876776
1431530347089521237,0.0,0.0,100.5,-0.044401093404,-0.00509342891003,0.889696920856,-0.454358876776
1431530347109582000,0.0,0.0,100.5,-0.044401093404,-0.00509342891003,0.889696920856,-0.454358876776
1431530347128575737,0.0,0.0,100.5,-0.0568042297678,-0.0114498850381,0.8891900312,-0.453853795873
1431530347146141373,0.0,0.0,100.5,-0.0568141950032,-0.0114003347775,0.889585554281,-0.453078052027
1431530347167047380,0.0,0.0,100.5,-0.0568141950032,-0.0114003347775,0.889585554281,-0.453078052027
1431530347188000281,0.0,0.0,100.3,-0.0568141950032,-0.0114003347775,0.889585554281,-0.453078052027
1431530347207378151,0.0,0.0,100.3,-0.0660985657198,-0.0181054505604,0.889015542406,-0.452719049335
1431530347226731152,0.0,0.0,100.3,-0.0660509635585,-0.0182783462932,0.887827885393,-0.455043754147
1431530347251135084,0.0,0.0,100.3,-0.0660509635585,-0.0182783462932,0.887827885393,-0.455043754147
1431530347268085837,0.0,0.0,100.3,-0.0660509635585,-0.0182783462932,0.887827885393,-0.455043754147
1431530347287160374,0.0,0.0,100.3,-0.068728073287,-0.0225923754626,0.887530803914,-0.45503308519
1431530347305131103,0.0,0.0,100.3,-0.0686288921611,-0.0228918904314,0.885537920271,-0.458899366174
1431530347326104871,0.0,0.0,100.3,-0.0686288921611,-0.0228918904314,0.885537920271,-0.458899366174
1431530347348071232,0.0,0.0,100.3,-0.0686288921611,-0.0228918904314,0.885537920271,-0.458899366174
1431530347367352295,0.0,0.0,100.3,-0.0698294425167,-0.0205746571479,0.885594789037,-0.458718216417
1431530347393278532,0.0,0.0,100.3,-0.0697025220446,-0.0210006185518,0.882777570417,-0.464116681029
1431530347410714314,0.0,0.0,100.3,-0.0697025220446,-0.0210006185518,0.882777570417,-0.464116681029
1431530347427005616,0.0,0.0,100.3,-0.0697025220446,-0.0210006185518,0.882777570417,-0.464116681029
1431530347452074626,0.0,0.0,100.3,-0.0678400538866,-0.0170645844064,0.883017772943,-0.464097123148
1431530347473120011,0.0,0.0,100.3,-0.0677346013054,-0.0174784649867,0.880167761347,-0.469479753486
1431530347497273697,0.0,0.0,100.3,-0.0677346013054,-0.0174784649867,0.880167761347,-0.469479753486
1431530347515376765,0.0,0.0,100.3,-0.0677346013054,-0.0174784649867,0.880167761347,-0.469479753486
1431530347540959556,0.0,0.0,100.3,-0.0686041970143,-0.0123484113404,0.878277857318,-0.473042266857
1431530347559354593,0.0,0.0,100.3,-0.0686041970143,-0.0123484113404,0.878277857318,-0.473042266857
1431530347577317144,0.0,0.0,100.3,-0.0686041970143,-0.0123484113404,0.878277857318,-0.473042266857
1431530347600071770,0.0,0.0,100.3,-0.0686644845251,-0.0104013956113,0.878338797364,-0.472967183407
1431530347618360039,0.0,0.0,100.3,-0.0686370325002,-0.0105810318652,0.877098194346,-0.475263881448
1431530347639378697,0.0,0.0,100.3,-0.0686370325002,-0.0105810318652,0.877098194346,-0.475263881448
1431530347661580253,0.0,0.0,100.3,-0.0686370325002,-0.0105810318652,0.877098194346,-0.475263881448
1431530347679996843,0.0,0.0,100.3,-0.0678821044539,-0.0101049287845,0.877552384959,-0.474543698685
1431530347703268830,0.0,0.0,100.3,-0.0678821044539,-0.0101049287845,0.877552384959,-0.474543698685
1431530347715242159,0.0,0.0,100.3,-0.0678821044539,-0.0101049287845,0.877552384959,-0.474543698685
1431530347736261281,0.0,0.0,100.3,-0.0678821044539,-0.0101049287845,0.877552384959,-0.474543698685
1431530347755903230,0.0,0.0,100.5,-0.067448704681,-0.0125820359184,0.879132612219,-0.471612356435
1431530347772887103,0.0,0.0,100.5,-0.067448704681,-0.0125820359184,0.879132612219,-0.471612356435
1431530347798442641,0.0,0.0,100.5,-0.067448704681,-0.0125820359184,0.879132612219,-0.471612356435
1431530347816902661,0.0,0.0,100.5,-0.067448704681,-0.0125820359184,0.879132612219,-0.471612356435
1431530347836697237,0.0,0.0,100.3,-0.067448704681,-0.0125820359184,0.879132612219,-0.471612356435
1431530347854907483,0.0,0.0,100.3,-0.067448704681,-0.0125820359184,0.879132612219,-0.471612356435
1431530347887814277,0.0,0.0,100.3,-0.067448704681,-0.0125820359184,0.879132612219,-0.471612356435
1431530347907331304,0.0,0.0,100.3,-0.0600064123607,-0.0188933891252,0.882829229815,-0.465461943994
1431530347930748375,0.0,0.0,100.3,-0.0600064123607,-0.0188933891252,0.882829229815,-0.465461943994
1431530347949305089,0.0,0.0,100.3,-0.0600064123607,-0.0188933891252,0.882829229815,-0.465461943994
1431530347972632021,0.0,0.0,100.3,-0.0561585959354,-0.0168578724639,0.883036430711,-0.465627196668
1431530347992828013,0.0,0.0,100.3,-0.0563034960011,-0.0163674096757,0.887064093858,-0.457907542661
1431530348012194143,0.0,0.0,100.3,-0.0563034960011,-0.0163674096757,0.887064093858,-0.457907542661
1431530348028739773,0.0,0.0,100.3,-0.0563034960011,-0.0163674096757,0.887064093858,-0.457907542661
1431530348051065648,0.0,0.0,100.3,-0.0587794809666,-0.011315033274,0.890309056627,-0.451405279463
1431530348069668861,0.0,0.0,100.3,-0.0587794809666,-0.011315033274,0.890309056627,-0.451405279463
1431530348088072700,0.0,0.0,100.0,-0.0587794809666,-0.011315033274,0.890309056627,-0.451405279463
1431530348109046492,0.0,0.0,100.0,-0.0587794809666,-0.011315033274,0.890309056627,-0.451405279463
1431530348129471067,0.0,0.0,100.0,-0.0639001886236,0.00106391112238,0.892759736021,-0.445977227812
1431530348152701373,0.0,0.0,100.0,-0.0639001886236,0.00106391112238,0.892759736021,-0.445977227812
1431530348173315520,0.0,0.0,100.5,-0.0639001886236,0.00106391112238,0.892759736021,-0.445977227812
1431530348191542811,0.0,0.0,100.5,-0.0639001886236,0.00106391112238,0.892759736021,-0.445977227812
1431530348211633671,0.0,0.0,100.5,-0.0743723359985,0.00668844111852,0.893617271643,-0.442574504704
1431530348228512469,0.0,0.0,100.5,-0.0743723359985,0.00668844111852,0.893617271643,-0.442574504704
1431530348249475012,0.0,0.0,100.3,-0.0743723359985,0.00668844111852,0.893617271643,-0.442574504704
1431530348268607755,0.0,0.0,100.3,-0.08600292768,0.00863148865298,0.893159288096,-0.441356409177
1431530348287616332,0.0,0.0,100.3,-0.0860104235409,0.0085564717145,0.892773987532,-0.442135274572
1431530348308445584,0.0,0.0,100.3,-0.0860104235409,0.0085564717145,0.892773987532,-0.442135274572
1431530348330402115,0.0,0.0,100.0,-0.0860104235409,0.0085564717145,0.892773987532,-0.442135274572
1431530348351905092,0.0,0.0,100.0,-0.102293897436,0.00193609243074,0.890310995409,-0.443709974587
1431530348370727584,0.0,0.0,100.0,-0.102293897436,0.00193609243074,0.890310995409,-0.443709974587
1431530348390231455,0.0,0.0,100.0,-0.102293897436,0.00193609243074,0.890310995409,-0.443709974587
1431530348406577005,0.0,0.0,100.0,-0.102293897436,0.00193609243074,0.890310995409,-0.443709974587
1431530348427445734,0.0,0.0,100.3,-0.117690011536,-0.00860282363143,0.886345684572,-0.447734720622
1431530348450293776,0.0,0.0,100.3,-0.117690011536,-0.00860282363143,0.886345684572,-0.447734720622
1431530348467182008,0.0,0.0,100.3,-0.117690011536,-0.00860282363143,0.886345684572,-0.447734720622
1431530348491994311,0.0,0.0,100.3,-0.117690011536,-0.00860282363143,0.886345684572,-0.447734720622
1431530348512355508,0.0,0.0,100.3,-0.129437201228,-0.0169898416503,0.880862464858,-0.455015026371
1431530348529358233,0.0,0.0,100.3,-0.129437201228,-0.0169898416503,0.880862464858,-0.455015026371
1431530348554723447,0.0,0.0,100.3,-0.129437201228,-0.0169898416503,0.880862464858,-0.455015026371
1431530348574060175,0.0,0.0,100.3,-0.129437201228,-0.0169898416503,0.880862464858,-0.455015026371
1431530348592610677,0.0,0.0,99.8,-0.138036761296,-0.0203073910575,0.8749142103,-0.463744096474
1431530348610560846,0.0,0.0,99.8,-0.138036761296,-0.0203073910575,0.8749142103,-0.463744096474
1431530348627964455,0.0,0.0,99.8,-0.138036761296,-0.0203073910575,0.8749142103,-0.463744096474
1431530348648857672,0.0,0.0,99.8,-0.138036761296,-0.0203073910575,0.8749142103,-0.463744096474
1431530348670445455,0.0,0.0,100.3,-0.116916481492,-0.027217748873,0.873499241819,-0.471793180369
1431530348691068965,0.0,0.0,100.3,-0.116916481492,-0.027217748873,0.873499241819,-0.471793180369
1431530348711388370,0.0,0.0,100.3,-0.116916481492,-0.027217748873,0.873499241819,-0.471793180369
1431530348731060149,0.0,0.0,100.3,-0.116916481492,-0.027217748873,0.873499241819,-0.471793180369
1431530348753773329,0.0,0.0,100.3,-0.102613375914,-0.0263858798087,0.873995222648,-0.474243219476
1431530348775658023,0.0,0.0,100.3,-0.102613375914,-0.0263858798087,0.873995222648,-0.474243219476
1431530348796686298,0.0,0.0,100.3,-0.102613375914,-0.0263858798087,0.873995222648,-0.474243219476
1431530348820565691,0.0,0.0,100.3,-0.127742541894,-0.0131387503807,0.871177518172,-0.473876511404
1431530348842654217,0.0,0.0,100.0,-0.127742541894,-0.0131387503807,0.871177518172,-0.473876511404
1431530348863188151,0.0,0.0,100.0,-0.127742541894,-0.0131387503807,0.871177518172,-0.473876511404
1431530348883264961,0.0,0.0,100.0,-0.127742541894,-0.0131387503807,0.871177518172,-0.473876511404
1431530348905385092,0.0,0.0,100.0,-0.0943923240296,-0.0505614079685,0.872648567456,-0.476464175889
1431530348930433390,0.0,0.0,100.0,-0.0943923240296,-0.0505614079685,0.872648567456,-0.476464175889
1431530348947316851,0.0,0.0,100.0,-0.0943923240296,-0.0505614079685,0.872648567456,-0.476464175889
1431530348970338513,0.0,0.0,100.0,-0.117397817164,-0.0572160527019,0.870514783859,-0.474497720671
1431530348993679919,0.0,0.0,100.0,-0.117347867401,-0.0573184279097,0.870100585323,-0.475256822422
1431530349010993795,0.0,0.0,100.0,-0.117347867401,-0.0573184279097,0.870100585323,-0.475256822422
1431530349027978425,0.0,0.0,100.0,-0.117347867401,-0.0573184279097,0.870100585323,-0.475256822422
1431530349056697084,0.0,0.0,100.0,-0.131031050296,-0.0790412959601,0.865204829476,-0.47749758161
1431530349074003233,0.0,0.0,99.8,-0.131031050296,-0.0790412959601,0.865204829476,-0.47749758161
1431530349090904444,0.0,0.0,99.8,-0.131031050296,-0.0790412959601,0.865204829476,-0.47749758161
1431530349108941102,0.0,0.0,99.8,-0.131031050296,-0.0790412959601,0.865204829476,-0.47749758161
1431530349137240789,0.0,0.0,99.8,-0.147455589393,-0.0725194457183,0.861840960535,-0.479820735165
1431530349153859555,0.0,0.0,99.8,-0.147455589393,-0.0725194457183,0.861840960535,-0.479820735165
1431530349175181086,0.0,0.0,99.8,-0.147455589393,-0.0725194457183,0.861840960535,-0.479820735165
1431530349195221949,0.0,0.0,99.8,-0.15043967387,-0.0830576368523,0.860097274796,-0.480314492156
1431530349213154584,0.0,0.0,99.8,-0.149929759983,-0.0839746008336,0.857148674979,-0.485556878716
1431530349234979307,0.0,0.0,99.8,-0.149929759983,-0.0839746008336,0.857148674979,-0.485556878716
1431530349253010572,0.0,0.0,99.8,-0.149929759983,-0.0839746008336,0.857148674979,-0.485556878716
1431530349271856616,0.0,0.0,99.8,-0.163436162653,-0.082760114362,0.856079216816,-0.483288483977
1431530349295770226,0.0,0.0,99.8,-0.1623394276,-0.0848912600813,0.849683104831,-0.494447171671
1431530349311148826,0.0,0.0,99.8,-0.1623394276,-0.0848912600813,0.849683104831,-0.494447171671
1431530349330189885,0.0,0.0,100.0,-0.1623394276,-0.0848912600813,0.849683104831,-0.494447171671
1431530349348895296,0.0,0.0,100.0,-0.166777727272,-0.0977454177626,0.837905024604,-0.510437256414
1431530349373395070,0.0,0.0,100.0,-0.166777727272,-0.0977454177626,0.837905024604,-0.510437256414
1431530349387897054,0.0,0.0,100.0,-0.166777727272,-0.0977454177626,0.837905024604,-0.510437256414
1431530349414283489,0.0,0.0,100.0,-0.166777727272,-0.0977454177626,0.837905024604,-0.510437256414
1431530349438065400,0.0,0.0,100.0,-0.156036143999,-0.0776802763855,0.838050121047,-0.51700144201
1431530349454867190,0.0,0.0,100.0,-0.156036143999,-0.0776802763855,0.838050121047,-0.51700144201
1431530349474462580,0.0,0.0,100.0,-0.156036143999,-0.0776802763855,0.838050121047,-0.51700144201
1431530349490998087,0.0,0.0,100.0,-0.156036143999,-0.0776802763855,0.838050121047,-0.51700144201
1431530349509703332,0.0,0.0,100.0,-0.156036143999,-0.0776802763855,0.838050121047,-0.51700144201
1431530349530183643,0.0,0.0,100.0,-0.156036143999,-0.0776802763855,0.838050121047,-0.51700144201
1431530349553041998,0.0,0.0,100.0,-0.121889910644,-0.0624656634025,0.842350614714,-0.521235390653
1431530349572815243,0.0,0.0,100.0,-0.121561339354,-0.0631026956272,0.839611293592,-0.525636534358
1431530349593813917,0.0,0.0,100.0,-0.121561339354,-0.0631026956272,0.839611293592,-0.525636534358
1431530349614109478,0.0,0.0,100.0,-0.121561339354,-0.0631026956272,0.839611293592,-0.525636534358
1431530349633823958,0.0,0.0,100.0,-0.116901907562,-0.0656055961482,0.841848721969,-0.522800706849
1431530349651869604,0.0,0.0,99.8,-0.116901907562,-0.0656055961482,0.841848721969,-0.522800706849
1431530349672991054,0.0,0.0,99.8,-0.116901907562,-0.0656055961482,0.841848721969,-0.522800706849
1431530349691786732,0.0,0.0,99.8,-0.116901907562,-0.0656055961482,0.841848721969,-0.522800706849
1431530349710776603,0.0,0.0,99.8,-0.134328157367,-0.0783963914507,0.842202272962,-0.516241497135
1431530349728988805,0.0,0.0,100.0,-0.134328157367,-0.0783963914507,0.842202272962,-0.516241497135
1431530349750011055,0.0,0.0,100.0,-0.134328157367,-0.0783963914507,0.842202272962,-0.516241497135
1431530349769833337,0.0,0.0,100.0,-0.12631340278,-0.0815683300386,0.84232619732,-0.517569424447
1431530349787814153,0.0,0.0,100.0,-0.127369747379,-0.0799087957589,0.84902544646,-0.506505007948
1431530349808910976,0.0,0.0,100.0,-0.127369747379,-0.0799087957589,0.84902544646,-0.506505007948
1431530349830654807,0.0,0.0,99.8,-0.127369747379,-0.0799087957589,0.84902544646,-0.506505007948
1431530349849757346,0.0,0.0,99.8,-0.147637745785,-0.0794329339068,0.851353380057,-0.497082414994
1431530349867849257,0.0,0.0,99.8,-0.147637745785,-0.0794329339068,0.851353380057,-0.497082414994
1431530349889404343,0.0,0.0,99.8,-0.147637745785,-0.0794329339068,0.851353380057,-0.497082414994
1431530349910463604,0.0,0.0,99.5,-0.147637745785,-0.0794329339068,0.851353380057,-0.497082414994
1431530349930287396,0.0,0.0,99.5,-0.166093994173,-0.10908304946,0.846862018114,-0.493293417446
1431530349947788598,0.0,0.0,99.5,-0.166093994173,-0.10908304946,0.846862018114,-0.493293417446
1431530349969003397,0.0,0.0,99.5,-0.166093994173,-0.10908304946,0.846862018114,-0.493293417446
1431530349990838590,0.0,0.0,99.8,-0.166093994173,-0.10908304946,0.846862018114,-0.493293417446
1431530350011795448,0.0,0.0,99.8,-0.168746181931,-0.101134396435,0.849278264673,-0.489921411142
1431530350030976333,0.0,0.0,99.8,-0.168746181931,-0.101134396435,0.849278264673,-0.489921411142
1431530350047657715,0.0,0.0,99.8,-0.168746181931,-0.101134396435,0.849278264673,-0.489921411142
1431530350072591244,0.0,0.0,99.8,-0.168746181931,-0.101134396435,0.849278264673,-0.489921411142
1431530350089576166,0.0,0.0,99.8,-0.163927539356,-0.0957821072737,0.849855344754,-0.491629375403
1431530350110509301,0.0,0.0,99.8,-0.163927539356,-0.0957821072737,0.849855344754,-0.491629375403
1431530350127378345,0.0,0.0,99.8,-0.163927539356,-0.0957821072737,0.849855344754,-0.491629375403
1431530350149769891,0.0,0.0,99.8,-0.163927539356,-0.0957821072737,0.849855344754,-0.491629375403
1431530350170452141,0.0,0.0,99.8,-0.163927539356,-0.0957821072737,0.849855344754,-0.491629375403
1431530350187259584,0.0,0.0,99.8,-0.163927539356,-0.0957821072737,0.849855344754,-0.491629375403
1431530350211274272,0.0,0.0,99.8,-0.159341035865,-0.0762723945517,0.85329688971,-0.490588803511
1431530350229286411,0.0,0.0,99.8,-0.158329529876,-0.078350519146,0.846805506063,-0.501710465329
1431530350251134714,0.0,0.0,99.8,-0.158329529876,-0.078350519146,0.846805506063,-0.501710465329
1431530350271357116,0.0,0.0,99.8,-0.158329529876,-0.078350519146,0.846805506063,-0.501710465329
1431530350293974167,0.0,0.0,99.8,-0.146925306827,-0.060475661137,0.850037095533,-0.502187798379
1431530350312221307,0.0,0.0,100.0,-0.145957770515,-0.0627748405213,0.842048310327,-0.515470941663
1431530350329195467,0.0,0.0,100.0,-0.145957770515,-0.0627748405213,0.842048310327,-0.515470941663
1431530350349989343,0.0,0.0,100.0,-0.145957770515,-0.0627748405213,0.842048310327,-0.515470941663
1431530350370550046,0.0,0.0,100.0,-0.137766828004,-0.0422505327232,0.838932290451,-0.52481216223
1431530350388613788,0.0,0.0,100.0,-0.137766828004,-0.0422505327232,0.838932290451,-0.52481216223
1431530350410749828,0.0,0.0,100.0,-0.137766828004,-0.0422505327232,0.838932290451,-0.52481216223
1431530350431268330,0.0,0.0,100.0,-0.137766828004,-0.0422505327232,0.838932290451,-0.52481216223
1431530350454347989,0.0,0.0,100.0,-0.130219425533,-0.0231330759363,0.833002420472,-0.537228749695
1431530350472634864,0.0,0.0,100.0,-0.130219425533,-0.0231330759363,0.833002420472,-0.537228749695
1431530350496320778,0.0,0.0,100.0,-0.130219425533,-0.0231330759363,0.833002420472,-0.537228749695
1431530350514765764,0.0,0.0,100.0,-0.130219425533,-0.0231330759363,0.833002420472,-0.537228749695
1431530350537010222,0.0,0.0,100.0,-0.122327677377,-0.0109464377117,0.828357774944,-0.546570683022
1431530350555304745,0.0,0.0,100.0,-0.122327677377,-0.0109464377117,0.828357774944,-0.546570683022
1431530350572120596,0.0,0.0,100.0,-0.122327677377,-0.0109464377117,0.828357774944,-0.546570683022
1431530350590428986,0.0,0.0,100.0,-0.122327677377,-0.0109464377117,0.828357774944,-0.546570683022
1431530350608968705,0.0,0.0,100.0,-0.115134831004,-0.00374833221504,0.825077626904,-0.553151724465
1431530350631242365,0.0,0.0,100.3,-0.115134831004,-0.00374833221504,0.825077626904,-0.553151724465
1431530350648099591,0.0,0.0,100.3,-0.115134831004,-0.00374833221504,0.825077626904,-0.553151724465
1431530350675137272,0.0,0.0,100.3,-0.102000103584,1.89114318796e-05,0.825615675906,-0.554936693876
1431530350693489103,0.0,0.0,100.3,-0.101998805779,-0.000514886932582,0.822700214601,-0.559249796967
1431530350714303239,0.0,0.0,100.5,-0.101998805779,-0.000514886932582,0.822700214601,-0.559249796967
1431530350731140581,0.0,0.0,100.5,-0.101998805779,-0.000514886932582,0.822700214601,-0.559249796967
1431530350750193701,0.0,0.0,100.5,-0.0855462811544,0.00772083936675,0.823264327763,-0.561122151633
1431530350770511855,0.0,0.0,100.5,-0.0855791389725,0.00734769028977,0.820809390531,-0.564707151395
1431530350789043800,0.0,0.0,100.5,-0.0855791389725,0.00734769028977,0.820809390531,-0.564707151395
1431530350810888245,0.0,0.0,100.3,-0.0855791389725,0.00734769028977,0.820809390531,-0.564707151395
1431530350830052496,0.0,0.0,100.3,-0.0707182596866,0.010297729969,0.821130371382,-0.566248883176
1431530350848114795,0.0,0.0,100.3,-0.0707624965843,0.00998922283095,0.818653096268,-0.569824527794
1431530350869069054,0.0,0.0,100.3,-0.0707624965843,0.00998922283095,0.818653096268,-0.569824527794
1431530350890924324,0.0,0.0,100.5,-0.0707624965843,0.00998922283095,0.818653096268,-0.569824527794
1431530350911048156,0.0,0.0,100.5,-0.0530746237483,0.0148621491093,0.817396711668,-0.573432486517
1431530350932170456,0.0,0.0,100.5,-0.0530746237483,0.0148621491093,0.817396711668,-0.573432486517
1431530350952497780,0.0,0.0,100.5,-0.0530746237483,0.0148621491093,0.817396711668,-0.573432486517
1431530350971358657,0.0,0.0,100.3,-0.0530746237483,0.0148621491093,0.817396711668,-0.573432486517
1431530350994064831,0.0,0.0,100.3,-0.0345550507789,0.0172430430748,0.817029786119,-0.575300751368
1431530351011795091,0.0,0.0,100.3,-0.0345550507789,0.0172430430748,0.817029786119,-0.575300751368
1431530351029278987,0.0,0.0,100.3,-0.0345550507789,0.0172430430748,0.817029786119,-0.575300751368
1431530351052344832,0.0,0.0,100.5,-0.0244210349385,0.0179934049035,0.817063640332,-0.575748954041
1431530351070207623,0.0,0.0,100.5,-0.0243738686447,0.0180572449388,0.818567384516,-0.573609002229
1431530351086943527,0.0,0.0,100.5,-0.0243738686447,0.0180572449388,0.818567384516,-0.573609002229
1431530351109249541,0.0,0.0,100.5,-0.0243738686447,0.0180572449388,0.818567384516,-0.573609002229
1431530351134898402,0.0,0.0,100.5,-0.0182370771715,0.0244913069236,0.818419156883,-0.573809784291
1431530351149925088,0.0,0.0,100.5,-0.0180657396869,0.0246179639319,0.822403117472,-0.568085114462
1431530351170961712,0.0,0.0,100.5,-0.0180657396869,0.0246179639319,0.822403117472,-0.568085114462
1431530351187755895,0.0,0.0,100.5,-0.0180657396869,0.0246179639319,0.822403117472,-0.568085114462
1431530351211804861,0.0,0.0,100.8,-0.0188058714815,0.0262341988811,0.827771138134,-0.560136634116
1431530351240834746,0.0,0.0,100.8,-0.0188058714815,0.0262341988811,0.827771138134,-0.560136634116
1431530351258716162,0.0,0.0,100.8,-0.0188058714815,0.0262341988811,0.827771138134,-0.560136634116
1431530351277627082,0.0,0.0,100.3,-0.0197829696115,0.0276781589955,0.827724114566,-0.560102976063
1431530351296712014,0.0,0.0,100.3,-0.0195165065894,0.0278666887623,0.833059811903,-0.552135765387
1431530351316810156,0.0,0.0,100.3,-0.0195165065894,0.0278666887623,0.833059811903,-0.552135765387
1431530351335831918,0.0,0.0,100.3,-0.0195165065894,0.0278666887623,0.833059811903,-0.552135765387
1431530351355194017,0.0,0.0,100.3,-0.0212146655314,0.0256950483808,0.833126954249,-0.552077150911
1431530351373512109,0.0,0.0,100.5,-0.0209897434805,0.0258791076648,0.837910542022,-0.544789524517
1431530351390643354,0.0,0.0,100.5,-0.0209897434805,0.0258791076648,0.837910542022,-0.544789524517
1431530351409998312,0.0,0.0,100.5,-0.0209897434805,0.0258791076648,0.837910542022,-0.544789524517
1431530351431698924,0.0,0.0,100.5,-0.017187843104,0.0200317715343,0.838070720628,-0.544922722415
1431530351450619769,0.0,0.0,100.5,-0.0170300657363,0.0201660775162,0.842322498192,-0.538327145162
1431530351479596895,0.0,0.0,100.5,-0.0170300657363,0.0201660775162,0.842322498192,-0.538327145162
1431530351492984499,0.0,0.0,100.5,-0.0170300657363,0.0201660775162,0.842322498192,-0.538327145162
1431530351514031430,0.0,0.0,100.5,-0.019358686545,0.00944365651157,0.845754101765,-0.533137935205
1431530351538624727,0.0,0.0,101.0,-0.019358686545,0.00944365651157,0.845754101765,-0.533137935205
1431530351559425612,0.0,0.0,101.0,-0.019358686545,0.00944365651157,0.845754101765,-0.533137935205
1431530351578901363,0.0,0.0,101.0,-0.0319737086473,-0.00161109808744,0.845639637436,-0.532793290043
1431530351599203363,0.0,0.0,101.0,-0.0319778148881,-0.00152742812974,0.847030883266,-0.530578711515
1431530351615349251,0.0,0.0,99.5,-0.0319778148881,-0.00152742812974,0.847030883266,-0.530578711515
1431530351632984811,0.0,0.0,99.5,-0.0319778148881,-0.00152742812974,0.847030883266,-0.530578711515
1431530351656072647,0.0,0.0,99.5,-0.0598848381104,0.0611512576652,0.84493627354,-0.52797445346
1431530351673939161,0.0,0.0,99.5,-0.0600446453714,0.0609943498348,0.843551849349,-0.530183560015
1431530351691369243,0.0,0.0,100.3,-0.0600446453714,0.0609943498348,0.843551849349,-0.530183560015
1431530351709265020,0.0,0.0,100.3,-0.0600446453714,0.0609943498348,0.843551849349,-0.530183560015
1431530351733022948,0.0,0.0,100.3,-0.0502951112681,0.0373136039502,0.844885030697,-0.53126959413
1431530351751416773,0.0,0.0,100.3,-0.0501646224096,0.0374888505523,0.846733425409,-0.528318656719
1431530351768351108,0.0,0.0,100.8,-0.0501646224096,0.0374888505523,0.846733425409,-0.528318656719
1431530351793282667,0.0,0.0,100.8,-0.0501646224096,0.0374888505523,0.846733425409,-0.528318656719
1431530351814024461,0.0,0.0,100.8,-0.0526933467326,0.0154890070679,0.849049725688,-0.525450345113
1431530351831288489,0.0,0.0,100.8,-0.0526933467326,0.0154890070679,0.849049725688,-0.525450345113
1431530351848258285,0.0,0.0,100.8,-0.0526933467326,0.0154890070679,0.849049725688,-0.525450345113
1431530351872929604,0.0,0.0,100.3,-0.113143460446,0.0391251983679,0.84713684829,-0.517713179744
1431530351894955373,0.0,0.0,100.3,-0.113279275029,0.0387302160842,0.845325452378,-0.520665589196
1431530351915344684,0.0,0.0,100.3,-0.113279275029,0.0387302160842,0.845325452378,-0.520665589196
1431530351933433769,0.0,0.0,100.3,-0.113279275029,0.0387302160842,0.845325452378,-0.520665589196
1431530351957795468,0.0,0.0,100.3,-0.113692123648,-0.023536384654,0.842489690401,-0.526052527022
1431530351974735116,0.0,0.0,100.3,-0.113692123648,-0.023536384654,0.842489690401,-0.526052527022
1431530351992300113,0.0,0.0,100.3,-0.113692123648,-0.023536384654,0.842489690401,-0.526052527022
1431530352010443514,0.0,0.0,100.3,-0.113692123648,-0.023536384654,0.842489690401,-0.526052527022
1431530352030617543,0.0,0.0,100.0,-0.110689086366,-0.0266486515849,0.842901007018,-0.525885603432
1431530352047535604,0.0,0.0,100.0,-0.110689086366,-0.0266486515849,0.842901007018,-0.525885603432
1431530352072639192,0.0,0.0,100.0,-0.110689086366,-0.0266486515849,0.842901007018,-0.525885603432
1431530352092603139,0.0,0.0,100.0,-0.121749287985,-0.0285486028344,0.842234844523,-0.524406860007
1431530352114434652,0.0,0.0,99.8,-0.121798904165,-0.0283361746351,0.843148361196,-0.522936830949
1431530352132240031,0.0,0.0,99.8,-0.121798904165,-0.0283361746351,0.843148361196,-0.522936830949
1431530352149184610,0.0,0.0,99.8,-0.121798904165,-0.0283361746351,0.843148361196,-0.522936830949
1431530352167014145,0.0,0.0,99.8,-0.121798904165,-0.0283361746351,0.843148361196,-0.522936830949
1431530352191612095,0.0,0.0,100.0,-0.124597098703,-0.0283390227865,0.845688747462,-0.518153457191
1431530352209238084,0.0,0.0,100.0,-0.124597098703,-0.0283390227865,0.845688747462,-0.518153457191
1431530352234818692,0.0,0.0,100.0,-0.124597098703,-0.0283390227865,0.845688747462,-0.518153457191
1431530352252390310,0.0,0.0,100.0,-0.124597098703,-0.0283390227865,0.845688747462,-0.518153457191
1431530352270425028,0.0,0.0,99.8,-0.124597098703,-0.0283390227865,0.845688747462,-0.518153457191
1431530352287900738,0.0,0.0,99.8,-0.124597098703,-0.0283390227865,0.845688747462,-0.518153457191
1431530352310436791,0.0,0.0,99.8,-0.173531893693,-0.0225327792886,0.842988820175,-0.508673573904
1431530352328614241,0.0,0.0,99.8,-0.17366623354,-0.0214728572687,0.846078823305,-0.503517209719
1431530352350372426,0.0,0.0,99.8,-0.17366623354,-0.0214728572687,0.846078823305,-0.503517209719
1431530352368136132,0.0,0.0,99.8,-0.17366623354,-0.0214728572687,0.846078823305,-0.503517209719
1431530352390457020,0.0,0.0,99.8,-0.18964427764,-0.0264621969746,0.844457321785,-0.500226580434
1431530352412268997,0.0,0.0,99.8,-0.189574385729,-0.0269583416756,0.843145506086,-0.502434528727
1431530352430405926,0.0,0.0,99.8,-0.189574385729,-0.0269583416756,0.843145506086,-0.502434528727
1431530352448232609,0.0,0.0,100.0,-0.189574385729,-0.0269583416756,0.843145506086,-0.502434528727
1431530352468336698,0.0,0.0,100.0,-0.212132327804,-0.0452079054494,0.835631579291,-0.504654321766
1431530352490485663,0.0,0.0,100.0,-0.212132327804,-0.0452079054494,0.835631579291,-0.504654321766
1431530352511373978,0.0,0.0,100.0,-0.212132327804,-0.0452079054494,0.835631579291,-0.504654321766
1431530352529226853,0.0,0.0,99.8,-0.212132327804,-0.0452079054494,0.835631579291,-0.504654321766
1431530352550568586,0.0,0.0,99.8,-0.209062756531,-0.0466507389369,0.837023776122,-0.503495452408
1431530352571628421,0.0,0.0,99.8,-0.209062756531,-0.0466507389369,0.837023776122,-0.503495452408
1431530352590948240,0.0,0.0,99.8,-0.209062756531,-0.0466507389369,0.837023776122,-0.503495452408
1431530352610481522,0.0,0.0,99.8,-0.209062756531,-0.0466507389369,0.837023776122,-0.503495452408
1431530352629428340,0.0,0.0,99.8,-0.225272640442,-0.055856593901,0.834779134661,-0.499275549892
1431530352648729631,0.0,0.0,99.8,-0.225272640442,-0.055856593901,0.834779134661,-0.499275549892
1431530352667951360,0.0,0.0,99.8,-0.225272640442,-0.055856593901,0.834779134661,-0.499275549892
1431530352692558547,0.0,0.0,99.8,-0.213638611024,-0.0372390793815,0.838015167823,-0.500701880708
1431530352710737997,0.0,0.0,99.8,-0.213606049011,-0.0374254055368,0.837578125803,-0.501432625607
1431530352731998045,0.0,0.0,99.8,-0.213606049011,-0.0374254055368,0.837578125803,-0.501432625607
1431530352753162382,0.0,0.0,99.8,-0.213606049011,-0.0374254055368,0.837578125803,-0.501432625607
1431530352775790884,0.0,0.0,99.8,-0.200403968602,-0.0461558925224,0.83785835153,-0.505669126728
1431530352794419257,0.0,0.0,99.8,-0.200403968602,-0.0461558925224,0.83785835153,-0.505669126728
1431530352812437559,0.0,0.0,99.8,-0.200403968602,-0.0461558925224,0.83785835153,-0.505669126728
1431530352833029107,0.0,0.0,99.8,-0.200403968602,-0.0461558925224,0.83785835153,-0.505669126728
1431530352855959137,0.0,0.0,100.0,-0.186115113078,-0.0400554580464,0.839693428486,-0.50859774982
1431530352879842561,0.0,0.0,100.0,-0.18604495541,-0.0403800644106,0.838804930787,-0.51006177376
1431530352900842066,0.0,0.0,100.0,-0.18604495541,-0.0403800644106,0.838804930787,-0.51006177376
1431530352922824141,0.0,0.0,100.0,-0.195521148527,-0.0230814749153,0.839539396087,-0.506371729475
1431530352947581020,0.0,0.0,100.0,-0.195561115364,-0.0227403641875,0.840421455594,-0.504906429917
1431530352967676703,0.0,0.0,100.0,-0.195561115364,-0.0227403641875,0.840421455594,-0.504906429917
1431530352983787946,0.0,0.0,100.0,-0.195561115364,-0.0227403641875,0.840421455594,-0.504906429917
1431530353001758681,0.0,0.0,100.0,-0.195561115364,-0.0227403641875,0.840421455594,-0.504906429917
1431530353020360150,0.0,0.0,100.0,-0.195561115364,-0.0227403641875,0.840421455594,-0.504906429917
1431530353040736028,0.0,0.0,100.0,-0.195561115364,-0.0227403641875,0.840421455594,-0.504906429917
1431530353079580957,0.0,0.0,100.0,-0.195561115364,-0.0227403641875,0.840421455594,-0.504906429917
1431530353101170211,0.0,0.0,100.0,-0.16725334875,-0.0108011167171,0.845895939423,-0.506329648427
1431530353118113802,0.0,0.0,100.0,-0.16725334875,-0.0108011167171,0.845895939423,-0.506329648427
1431530353146678739,0.0,0.0,100.0,-0.163938544396,0.00243862035302,0.852747955342,-0.495922505491
1431530353163081483,0.0,0.0,100.0,-0.163938544396,0.00243862035302,0.852747955342,-0.495922505491
1431530353184004865,0.0,0.0,99.5,-0.163938544396,0.00243862035302,0.852747955342,-0.495922505491
1431530353201832032,0.0,0.0,99.5,-0.163938544396,0.00243862035302,0.852747955342,-0.495922505491
1431530353221526885,0.0,0.0,99.5,-0.16403403219,0.0094497941689,0.852963951438,-0.495435197802
1431530353245704020,0.0,0.0,99.5,-0.1639732789,0.0104511307098,0.855972941505,-0.490218177025
1431530353272835764,0.0,0.0,99.8,-0.1639732789,0.0104511307098,0.855972941505,-0.490218177025
1431530353294417692,0.0,0.0,99.8,-0.154962883915,0.00685479517822,0.856465509293,-0.492347791488
1431530353316971119,0.0,0.0,99.8,-0.154897201096,0.00820613800505,0.860727243166,-0.484858875617
1431530353338575072,0.0,0.0,100.0,-0.154897201096,0.00820613800505,0.860727243166,-0.484858875617
1431530353355901524,0.0,0.0,100.0,-0.154897201096,0.00820613800505,0.860727243166,-0.484858875617
1431530353379933342,0.0,0.0,100.0,-0.139304078539,0.00340165551019,0.861573123654,-0.488133747081
1431530353403861050,0.0,0.0,100.0,-0.139276951434,0.00437359771393,0.86495821018,-0.482110046653
1431530353426556437,0.0,0.0,99.8,-0.139276951434,0.00437359771393,0.86495821018,-0.482110046653
1431530353445674184,0.0,0.0,99.8,-0.139276951434,0.00437359771393,0.86495821018,-0.482110046653
1431530353465019448,0.0,0.0,99.8,-0.131689542308,0.007111915837,0.866735327731,-0.481016794679
1431530353491280500,0.0,0.0,99.8,-0.131689542308,0.007111915837,0.866735327731,-0.481016794679
1431530353514738911,0.0,0.0,99.8,-0.131689542308,0.007111915837,0.866735327731,-0.481016794679
1431530353538647869,0.0,0.0,99.8,-0.121575800882,0.0142289904532,0.868672234978,-0.480026466614
1431530353562571492,0.0,0.0,99.8,-0.121575800882,0.0142289904532,0.868672234978,-0.480026466614
1431530353583804042,0.0,0.0,99.8,-0.121575800882,0.0142289904532,0.868672234978,-0.480026466614
1431530353609678143,0.0,0.0,99.8,-0.112448068975,-0.0286203378639,0.870407579409,-0.478463116397
1431530353636188737,0.0,0.0,99.8,-0.112448068975,-0.0286203378639,0.870407579409,-0.478463116397
1431530353656436965,0.0,0.0,99.8,-0.112448068975,-0.0286203378639,0.870407579409,-0.478463116397
1431530353676488145,0.0,0.0,100.3,-0.135720198743,0.0466432507183,0.870622030223,-0.470554688964
1431530353699859586,0.0,0.0,100.3,-0.136121863811,0.0454577097628,0.866484682682,-0.478130452379
1431530353718837420,0.0,0.0,100.3,-0.136121863811,0.0454577097628,0.866484682682,-0.478130452379
1431530353744974197,0.0,0.0,100.3,-0.136121863811,0.0454577097628,0.866484682682,-0.478130452379
1431530353765577863,0.0,0.0,100.3,-0.128300820758,0.0674700928152,0.863430780598,-0.483191445583
1431530353791417967,0.0,0.0,100.3,-0.128300820758,0.0674700928152,0.863430780598,-0.483191445583
1431530353809999205,0.0,0.0,100.3,-0.128300820758,0.0674700928152,0.863430780598,-0.483191445583
1431530353830272205,0.0,0.0,100.3,-0.114285987791,0.0518598697708,0.865990447996,-0.484055586562
1431530353849875988,0.0,0.0,100.5,-0.114285987791,0.0518598697708,0.865990447996,-0.484055586562
1431530353871910664,0.0,0.0,100.5,-0.114285987791,0.0518598697708,0.865990447996,-0.484055586562
1431530353895007693,0.0,0.0,100.5,-0.114285987791,0.0518598697708,0.865990447996,-0.484055586562
1431530353914256269,0.0,0.0,100.5,-0.128715236638,0.0290065591485,0.863738039246,-0.486361601016
1431530353933356402,0.0,0.0,100.3,-0.128715236638,0.0290065591485,0.863738039246,-0.486361601016
1431530353952973931,0.0,0.0,100.3,-0.128715236638,0.0290065591485,0.863738039246,-0.486361601016
1431530353973719202,0.0,0.0,100.3,-0.128715236638,0.0290065591485,0.863738039246,-0.486361601016
1431530353995525655,0.0,0.0,100.3,-0.0740428245563,0.0544435178061,0.871717791529,-0.481312430167
1431530354016737302,0.0,0.0,100.5,-0.0740428245563,0.0544435178061,0.871717791529,-0.481312430167
1431530354034976209,0.0,0.0,100.5,-0.0740428245563,0.0544435178061,0.871717791529,-0.481312430167
1431530354059586243,0.0,0.0,100.5,-0.0620592163771,0.0247063395612,0.877156295625,-0.475536626869
1431530354082186434,0.0,0.0,100.5,-0.0620592163771,0.0247063395612,0.877156295625,-0.475536626869
1431530354101133302,0.0,0.0,100.5,-0.0620592163771,0.0247063395612,0.877156295625,-0.475536626869
1431530354120618343,0.0,0.0,100.5,-0.0620592163771,0.0247063395612,0.877156295625,-0.475536626869
1431530354139242064,0.0,0.0,100.5,-0.0535922538262,0.172373953194,0.858855349675,-0.479356421594
1431530354157931719,0.0,0.0,100.5,-0.0535922538262,0.172373953194,0.858855349675,-0.479356421594
1431530354176205697,0.0,0.0,100.8,-0.0535922538262,0.172373953194,0.858855349675,-0.479356421594
1431530354194366185,0.0,0.0,100.8,-0.0535922538262,0.172373953194,0.858855349675,-0.479356421594
1431530354215087365,0.0,0.0,100.8,0.0416501682415,0.0554634121678,0.881253108456,-0.467527573768
1431530354233166923,0.0,0.0,100.8,0.0416501682415,0.0554634121678,0.881253108456,-0.467527573768
1431530354252901976,0.0,0.0,101.0,0.0416501682415,0.0554634121678,0.881253108456,-0.467527573768
1431530354270086971,0.0,0.0,101.0,0.0416501682415,0.0554634121678,0.881253108456,-0.467527573768
1431530354294668650,0.0,0.0,101.0,0.0411548353378,0.052902494724,0.909002875479,-0.411365260993
1431530354319516491,0.0,0.0,101.0,0.0411548353378,0.052902494724,0.909002875479,-0.411365260993
1431530354339519677,0.0,0.0,101.0,0.0411548353378,0.052902494724,0.909002875479,-0.411365260993
1431530354359119315,0.0,0.0,101.0,0.07684757999,0.110554396325,0.900173133957,-0.414198628444
1431530354379751179,0.0,0.0,101.0,0.0824325881134,0.106455124414,0.920287171987,-0.367346833359
1431530354398075718,0.0,0.0,101.0,0.0824325881134,0.106455124414,0.920287171987,-0.367346833359
1431530354416245149,0.0,0.0,101.3,0.0824325881134,0.106455124414,0.920287171987,-0.367346833359
1431530354434768950,0.0,0.0,101.3,0.0824325881134,0.106455124414,0.920287171987,-0.367346833359
1431530354453828785,0.0,0.0,101.3,0.159764804338,0.0310698496163,0.953756273496,-0.25270307182
1431530354470960284,0.0,0.0,101.3,0.159764804338,0.0310698496163,0.953756273496,-0.25270307182
1431530354488389169,0.0,0.0,101.3,0.159764804338,0.0310698496163,0.953756273496,-0.25270307182
1431530354514476111,0.0,0.0,101.6,0.159764804338,0.0310698496163,0.953756273496,-0.25270307182
1431530354534012670,0.0,0.0,101.6,0.159606801566,0.0193191838182,0.974859454308,-0.154277290539
1431530354555457220,0.0,0.0,101.6,0.159606801566,0.0193191838182,0.974859454308,-0.154277290539
1431530354576920154,0.0,0.0,101.6,0.159606801566,0.0193191838182,0.974859454308,-0.154277290539
1431530354598969741,0.0,0.0,101.6,0.166805602458,0.0178607286788,0.973785327255,-0.1536197311
1431530354623680142,0.0,0.0,101.6,0.167721431918,0.00355470334323,0.983345124438,-0.0699231835869
1431530354639165792,0.0,0.0,101.6,0.167721431918,0.00355470334323,0.983345124438,-0.0699231835869
1431530354661370736,0.0,0.0,101.8,0.167721431918,0.00355470334323,0.983345124438,-0.0699231835869
1431530354683037420,0.0,0.0,101.8,0.178059465064,-0.010459598016,0.983840228822,-0.0156149883863
1431530354700947746,0.0,0.0,101.8,0.178059465064,-0.010459598016,0.983840228822,-0.0156149883863
1431530354718400871,0.0,0.0,101.8,0.178059465064,-0.010459598016,0.983840228822,-0.0156149883863
1431530354739228694,0.0,0.0,101.8,0.178059465064,-0.010459598016,0.983840228822,-0.0156149883863
1431530354760049562,0.0,0.0,101.6,0.166773485623,-0.0227400716075,0.984899784045,0.0405204766084
1431530354779808146,0.0,0.0,101.6,0.166773485623,-0.0227400716075,0.984899784045,0.0405204766084
1431530354797828569,0.0,0.0,101.6,0.166773485623,-0.0227400716075,0.984899784045,0.0405204766084
1431530354819184893,0.0,0.0,101.6,0.166773485623,-0.0227400716075,0.984899784045,0.0405204766084
1431530354839195480,0.0,0.0,101.8,0.152969477751,-0.0322421769491,0.985804007893,0.0612473585052
1431530354859947646,0.0,0.0,101.8,0.152969477751,-0.0322421769491,0.985804007893,0.0612473585052
1431530354877731479,0.0,0.0,101.8,0.152969477751,-0.0322421769491,0.985804007893,0.0612473585052
1431530354895081812,0.0,0.0,101.8,0.152969477751,-0.0322421769491,0.985804007893,0.0612473585052
1431530354915001328,0.0,0.0,101.6,0.135737060179,-0.0366593046292,0.986733429114,0.0811707197637
1431530354932079023,0.0,0.0,101.6,0.135737060179,-0.0366593046292,0.986733429114,0.0811707197637
1431530354952653715,0.0,0.0,101.6,0.135737060179,-0.0366593046292,0.986733429114,0.0811707197637
1431530354973393182,0.0,0.0,101.6,0.119216086728,-0.037153709286,0.988851271302,0.081118985424
1431530354996143951,0.0,0.0,101.6,0.118618104971,-0.0390207460415,0.987455887079,0.0966333152959
1431530355016105177,0.0,0.0,101.6,0.118618104971,-0.0390207460415,0.987455887079,0.0966333152959
1431530355036559018,0.0,0.0,101.6,0.118618104971,-0.0390207460415,0.987455887079,0.0966333152959
1431530355056760837,0.0,0.0,101.6,0.0961817295675,-0.0369729554863,0.990009813922,0.0962426298396
1431530355074575862,0.0,0.0,101.6,0.0961817295675,-0.0369729554863,0.990009813922,0.0962426298396
1431530355094711529,0.0,0.0,101.8,0.0961817295675,-0.0369729554863,0.990009813922,0.0962426298396
1431530355114104959,0.0,0.0,101.8,0.0961817295675,-0.0369729554863,0.990009813922,0.0962426298396
1431530355134506180,0.0,0.0,101.8,0.0760313478154,-0.0296092223504,0.992412301833,0.0919801678166
1431530355155801558,0.0,0.0,101.8,0.0760313478154,-0.0296092223504,0.992412301833,0.0919801678166
1431530355175581745,0.0,0.0,101.6,0.0760313478154,-0.0296092223504,0.992412301833,0.0919801678166
1431530355199482585,0.0,0.0,101.6,0.0760313478154,-0.0296092223504,0.992412301833,0.0919801678166
1431530355218823259,0.0,0.0,101.6,0.0566838966239,-0.0230505490083,0.99461869806,0.0836017554989
1431530355240725390,0.0,0.0,101.6,0.0566838966239,-0.0230505490083,0.99461869806,0.0836017554989
1431530355261855591,0.0,0.0,101.8,0.0566838966239,-0.0230505490083,0.99461869806,0.0836017554989
1431530355279450559,0.0,0.0,101.8,0.035415471673,-0.0160577055719,0.995781775097,0.0831056607157
1431530355298648411,0.0,0.0,101.8,0.0356089088374,-0.0156240568823,0.996722322132,0.0709401650873
1431530355317455993,0.0,0.0,101.8,0.0356089088374,-0.0156240568823,0.996722322132,0.0709401650873
1431530355335511917,0.0,0.0,101.6,0.0356089088374,-0.0156240568823,0.996722322132,0.0709401650873
1431530355356795918,0.0,0.0,101.6,0.0239953010131,-0.0191777607645,0.997008757179,0.0709223316707
1431530355374718228,0.0,0.0,101.6,0.0242934222478,-0.0187986865003,0.997999318223,0.0552611965847
1431530355392650319,0.0,0.0,101.6,0.0242934222478,-0.0187986865003,0.997999318223,0.0552611965847
1431530355411853396,0.0,0.0,101.6,0.0242934222478,-0.0187986865003,0.997999318223,0.0552611965847
1431530355430415355,0.0,0.0,101.6,0.0242934222478,-0.0187986865003,0.997999318223,0.0552611965847
1431530355450577040,0.0,0.0,101.6,0.0124190345946,-0.0187691061425,0.999101645676,0.0359080748896
1431530355469225384,0.0,0.0,101.6,0.0124190345946,-0.0187691061425,0.999101645676,0.0359080748896
1431530355486854552,0.0,0.0,101.6,0.0124190345946,-0.0187691061425,0.999101645676,0.0359080748896
1431530355505286229,0.0,0.0,101.6,0.0124190345946,-0.0187691061425,0.999101645676,0.0359080748896
1431530355525873464,0.0,0.0,101.6,0.0136786298476,-0.021109470918,0.999595181734,0.0132950357932
1431530355544798876,0.0,0.0,101.6,0.0136786298476,-0.021109470918,0.999595181734,0.0132950357932
1431530355572919791,0.0,0.0,101.6,0.0136786298476,-0.021109470918,0.999595181734,0.0132950357932
1431530355596250805,0.0,0.0,101.6,0.0186729926181,-0.0386074409657,0.998985604458,0.0137312393703
1431530355614729134,0.0,0.0,101.6,0.0196102099651,-0.0381399372884,0.999023013356,-0.0106678786024
1431530355644467915,0.0,0.0,101.6,0.0196102099651,-0.0381399372884,0.999023013356,-0.0106678786024
1431530355676519670,0.0,0.0,101.6,0.0362401101468,-0.0457710868365,0.998246831737,-0.00974294381307
1431530355696229921,0.0,0.0,101.6,0.037307870646,-0.0449050193353,0.997740604317,-0.0332467821566
1431530355723073429,0.0,0.0,101.6,0.037307870646,-0.0449050193353,0.997740604317,-0.0332467821566
1431530355747489182,0.0,0.0,101.8,0.0496105085545,-0.0405938922078,0.996202545772,-0.0589187674156
1431530355766473751,0.0,0.0,101.8,0.0496105085545,-0.0405938922078,0.996202545772,-0.0589187674156
1431530355785545850,0.0,0.0,101.8,0.0496105085545,-0.0405938922078,0.996202545772,-0.0589187674156
1431530355812854582,0.0,0.0,101.8,0.0914141629479,-0.0561683311111,0.992688230475,-0.0553050311443
1431530355831139380,0.0,0.0,102.1,0.0926643213983,-0.054080996173,0.991178893058,-0.0778008441352
1431530355849248309,0.0,0.0,102.1,0.0926643213983,-0.054080996173,0.991178893058,-0.0778008441352
1431530355875624497,0.0,0.0,102.1,0.0926643213983,-0.054080996173,0.991178893058,-0.0778008441352
1431530355897750830,0.0,0.0,102.1,0.114981729498,-0.0559570804869,0.987184400523,-0.095472333105
1431530355915323361,0.0,0.0,102.1,0.114981729498,-0.0559570804869,0.987184400523,-0.095472333105
1431530355934050498,0.0,0.0,102.1,0.114981729498,-0.0559570804869,0.987184400523,-0.095472333105
1431530355956432106,0.0,0.0,102.1,0.114981729498,-0.0559570804869,0.987184400523,-0.095472333105
1431530355977475996,0.0,0.0,102.3,0.149621855888,-0.0588464975484,0.980814814393,-0.110239239083
1431530356000340139,0.0,0.0,102.3,0.149621855888,-0.0588464975484,0.980814814393,-0.110239239083
1431530356021976153,0.0,0.0,102.3,0.149621855888,-0.0588464975484,0.980814814393,-0.110239239083
1431530356041302614,0.0,0.0,102.3,0.149621855888,-0.0588464975484,0.980814814393,-0.110239239083
1431530356060984326,0.0,0.0,102.3,0.186972967662,-0.048573735856,0.97308160753,-0.125673730889
1431530356084548641,0.0,0.0,102.3,0.186972967662,-0.048573735856,0.97308160753,-0.125673730889
1431530356101914886,0.0,0.0,102.3,0.186972967662,-0.048573735856,0.97308160753,-0.125673730889
1431530356122076289,0.0,0.0,102.3,0.186972967662,-0.048573735856,0.97308160753,-0.125673730889
1431530356142751658,0.0,0.0,102.3,0.21855911917,-0.0324737113616,0.965297151253,-0.139207683987
1431530356162864639,0.0,0.0,102.6,0.21855911917,-0.0324737113616,0.965297151253,-0.139207683987
1431530356180893677,0.0,0.0,102.6,0.21855911917,-0.0324737113616,0.965297151253,-0.139207683987
1431530356200911722,0.0,0.0,102.6,0.21855911917,-0.0324737113616,0.965297151253,-0.139207683987
1431530356221830309,0.0,0.0,102.6,0.242916577681,-0.0102923085136,0.956749947407,-0.159734601168
1431530356238893587,0.0,0.0,102.3,0.242916577681,-0.0102923085136,0.956749947407,-0.159734601168
1431530356263746613,0.0,0.0,102.3,0.242916577681,-0.0102923085136,0.956749947407,-0.159734601168
1431530356285764272,0.0,0.0,102.3,0.270738159107,0.0122507770572,0.948956937155,-0.161342799931
1431530356305642522,0.0,0.0,102.3,0.27042241107,0.0179151312053,0.945371830225,-0.181170831763
1431530356326744656,0.0,0.0,102.9,0.27042241107,0.0179151312053,0.945371830225,-0.181170831763
1431530356345516703,0.0,0.0,102.9,0.27042241107,0.0179151312053,0.945371830225,-0.181170831763
1431530356362825820,0.0,0.0,102.9,0.27042241107,0.0179151312053,0.945371830225,-0.181170831763
1431530356382779197,0.0,0.0,102.9,0.298998813065,0.0265800542216,0.934582101717,-0.190917536265
1431530356399895203,0.0,0.0,102.9,0.298998813065,0.0265800542216,0.934582101717,-0.190917536265
1431530356417709891,0.0,0.0,102.9,0.298998813065,0.0265800542216,0.934582101717,-0.190917536265
1431530356438731023,0.0,0.0,102.9,0.298998813065,0.0265800542216,0.934582101717,-0.190917536265
1431530356458721647,0.0,0.0,102.9,0.294953877501,0.0553464205627,0.928133980324,-0.220241454878
1431530356475968367,0.0,0.0,103.1,0.294953877501,0.0553464205627,0.928133980324,-0.220241454878
1431530356497514549,0.0,0.0,103.1,0.294953877501,0.0553464205627,0.928133980324,-0.220241454878
1431530356520316268,0.0,0.0,103.1,0.294953877501,0.0553464205627,0.928133980324,-0.220241454878
1431530356542986104,0.0,0.0,103.1,0.290181606775,0.0751023520542,0.921150203356,-0.248267143742
1431530356564071251,0.0,0.0,103.6,0.290181606775,0.0751023520542,0.921150203356,-0.248267143742
1431530356588643482,0.0,0.0,103.6,0.290181606775,0.0751023520542,0.921150203356,-0.248267143742
1431530356609980848,0.0,0.0,103.6,0.291801634198,0.0850152880658,0.91911016037,-0.250720402398
1431530356630016011,0.0,0.0,103.6,0.289152524768,0.0936301786085,0.911271870321,-0.277862889636
1431530356650988715,0.0,0.0,103.6,0.289152524768,0.0936301786085,0.911271870321,-0.277862889636
1431530356673060856,0.0,0.0,103.6,0.289152524768,0.0936301786085,0.911271870321,-0.277862889636
1431530356696514710,0.0,0.0,103.6,0.2871188434,0.104797892613,0.902119250415,-0.30456695405
1431530356717055988,0.0,0.0,103.6,0.2871188434,0.104797892613,0.902119250415,-0.30456695405
1431530356743738225,0.0,0.0,103.6,0.2871188434,0.104797892613,0.902119250415,-0.30456695405
1431530356766606810,0.0,0.0,103.6,0.272347504846,0.108513216078,0.896983032351,-0.330867281874
1431530356784232469,0.0,0.0,103.6,0.272347504846,0.108513216078,0.896983032351,-0.330867281874
1431530356805210282,0.0,0.0,103.6,0.272347504846,0.108513216078,0.896983032351,-0.330867281874
1431530356826264162,0.0,0.0,103.6,0.272347504846,0.108513216078,0.896983032351,-0.330867281874
1431530356845540048,0.0,0.0,103.6,0.255455527767,0.112295564566,0.892335634778,-0.354780628583
1431530356862651890,0.0,0.0,103.6,0.255455527767,0.112295564566,0.892335634778,-0.354780628583
1431530356880997350,0.0,0.0,103.6,0.255455527767,0.112295564566,0.892335634778,-0.354780628583
1431530356897660544,0.0,0.0,103.6,0.255455527767,0.112295564566,0.892335634778,-0.354780628583
1431530356922054626,0.0,0.0,103.6,0.241223618942,0.113220410692,0.887403896862,-0.376173667475
1431530356942824755,0.0,0.0,103.6,0.241223618942,0.113220410692,0.887403896862,-0.376173667475
1431530356963372475,0.0,0.0,103.6,0.241223618942,0.113220410692,0.887403896862,-0.376173667475
1431530356982383497,0.0,0.0,103.9,0.241223618942,0.113220410692,0.887403896862,-0.376173667475
1431530357002591911,0.0,0.0,103.9,0.219432926549,0.113877810374,0.881744740672,-0.401755208239
1431530357023503337,0.0,0.0,103.9,0.219432926549,0.113877810374,0.881744740672,-0.401755208239
1431530357046137384,0.0,0.0,103.9,0.219432926549,0.113877810374,0.881744740672,-0.401755208239
1431530357067070037,0.0,0.0,103.4,0.199812405292,0.107893847546,0.886098292201,-0.404059076016
1431530357085405813,0.0,0.0,103.4,0.19789995097,0.111362871069,0.878915243318,-0.419454306709
1431530357102710797,0.0,0.0,103.4,0.19789995097,0.111362871069,0.878915243318,-0.419454306709
1431530357119590995,0.0,0.0,103.4,0.19789995097,0.111362871069,0.878915243318,-0.419454306709
1431530357138457790,0.0,0.0,103.9,0.179100056399,0.107273315791,0.882355867014,-0.421738935199
1431530357157555229,0.0,0.0,103.9,0.177681275507,0.10960729363,0.876762756417,-0.433246667013
1431530357177296799,0.0,0.0,103.9,0.177681275507,0.10960729363,0.876762756417,-0.433246667013
1431530357203363337,0.0,0.0,103.9,0.177681275507,0.10960729363,0.876762756417,-0.433246667013
1431530357223360071,0.0,0.0,103.6,0.15514796496,0.106406893763,0.876064088549,-0.44398017375
1431530357242616690,0.0,0.0,103.6,0.15514796496,0.106406893763,0.876064088549,-0.44398017375
1431530357258488770,0.0,0.0,103.6,0.15514796496,0.106406893763,0.876064088549,-0.44398017375
1431530357280522544,0.0,0.0,103.6,0.15514796496,0.106406893763,0.876064088549,-0.44398017375
1431530357300766259,0.0,0.0,103.6,0.131552584969,0.101116228064,0.875666536099,-0.45351686117
1431530357318211711,0.0,0.0,103.4,0.131552584969,0.101116228064,0.875666536099,-0.45351686117
1431530357339540524,0.0,0.0,103.4,0.131552584969,0.101116228064,0.875666536099,-0.45351686117
1431530357357727170,0.0,0.0,103.4,0.131552584969,0.101116228064,0.875666536099,-0.45351686117
1431530357377906294,0.0,0.0,103.4,0.111250827852,0.0948646590766,0.87536503632,-0.460825349726
1431530357398245170,0.0,0.0,103.4,0.111250827852,0.0948646590766,0.87536503632,-0.460825349726
1431530357420194333,0.0,0.0,103.4,0.111250827852,0.0948646590766,0.87536503632,-0.460825349726
1431530357439199574,0.0,0.0,103.4,0.106572029363,0.0963407398507,0.875522703269,-0.461325113627
1431530357461195690,0.0,0.0,103.4,0.106403806226,0.0965265021544,0.874716615501,-0.462851711642
1431530357486834980,0.0,0.0,102.9,0.106403806226,0.0965265021544,0.874716615501,-0.462851711642
1431530357510290507,0.0,0.0,102.9,0.0923760801458,0.0805137229722,0.878008045453,-0.4626943617
1431530357528753161,0.0,0.0,102.9,0.0921650865643,0.0807551644697,0.876794324087,-0.464990229444
1431530357546351290,0.0,0.0,102.9,0.0921650865643,0.0807551644697,0.876794324087,-0.464990229444
1431530357563265493,0.0,0.0,102.9,0.0921650865643,0.0807551644697,0.876794324087,-0.464990229444
1431530357586134686,0.0,0.0,102.9,0.063913524496,0.0748204929717,0.879207024802,-0.466167311978
1431530357607763866,0.0,0.0,102.9,0.0631269167679,0.0754853440172,0.87427973741,-0.475343976477
1431530357630089969,0.0,0.0,103.1,0.0631269167679,0.0754853440172,0.87427973741,-0.475343976477
1431530357649841727,0.0,0.0,103.1,0.0631269167679,0.0754853440172,0.87427973741,-0.475343976477
1431530357671855075,0.0,0.0,103.1,0.0817562390876,0.0876598862068,0.8671650767,-0.483380172817
1431530357693012616,0.0,0.0,103.1,0.0817562390876,0.0876598862068,0.8671650767,-0.483380172817
1431530357713538125,0.0,0.0,103.6,0.0817562390876,0.0876598862068,0.8671650767,-0.483380172817
1431530357731487291,0.0,0.0,103.6,0.0817562390876,0.0876598862068,0.8671650767,-0.483380172817
1431530357754168343,0.0,0.0,103.6,0.0956722264504,0.104139053761,0.857499994259,-0.494667203697
1431530357772538904,0.0,0.0,103.6,0.0956722264504,0.104139053761,0.857499994259,-0.494667203697
1431530357795458550,0.0,0.0,103.6,0.0956722264504,0.104139053761,0.857499994259,-0.494667203697
1431530357816725743,0.0,0.0,103.6,0.124571603767,0.100603549038,0.855888312745,-0.491747941085
1431530357833772330,0.0,0.0,103.6,0.123511815763,0.101901864119,0.850694563608,-0.500679139674
1431530357852390889,0.0,0.0,103.6,0.123511815763,0.101901864119,0.850694563608,-0.500679139674
1431530357873195911,0.0,0.0,103.6,0.123511815763,0.101901864119,0.850694563608,-0.500679139674
1431530357896191681,0.0,0.0,103.4,0.149132669057,0.105793854801,0.847843356428,-0.497723568124
1431530357914184544,0.0,0.0,103.4,0.148297600886,0.106961274606,0.843910143567,-0.50436373471
1431530357930750085,0.0,0.0,103.4,0.148297600886,0.106961274606,0.843910143567,-0.50436373471
1431530357953494574,0.0,0.0,103.4,0.148297600886,0.106961274606,0.843910143567,-0.50436373471
1431530357968586992,0.0,0.0,103.6,0.158062377273,0.120651759073,0.840395428957,-0.504177509328
1431530357987201211,0.0,0.0,103.6,0.157110400617,0.121888818579,0.836411782656,-0.510759011431
1431530358007358943,0.0,0.0,103.6,0.157110400617,0.121888818579,0.836411782656,-0.510759011431
1431530358027674849,0.0,0.0,103.6,0.157110400617,0.121888818579,0.836411782656,-0.510759011431
1431530358049608671,0.0,0.0,103.6,0.167978982314,0.116951828422,0.831233168243,-0.51687208412
1431530358069151575,0.0,0.0,103.6,0.167978982314,0.116951828422,0.831233168243,-0.51687208412
1431530358086600770,0.0,0.0,103.6,0.167978982314,0.116951828422,0.831233168243,-0.51687208412
1431530358103588322,0.0,0.0,103.6,0.167978982314,0.116951828422,0.831233168243,-0.51687208412
1431530358122955644,0.0,0.0,103.6,0.170784470093,0.115671790402,0.831224023062,-0.516255096987
1431530358143652448,0.0,0.0,103.6,0.169769071467,0.117156991652,0.826689570096,-0.523485488219
1431530358163055733,0.0,0.0,103.6,0.169769071467,0.117156991652,0.826689570096,-0.523485488219
1431530358179590669,0.0,0.0,103.6,0.169769071467,0.117156991652,0.826689570096,-0.523485488219
1431530358198035200,0.0,0.0,103.6,0.169769071467,0.117156991652,0.826689570096,-0.523485488219
1431530358217806888,0.0,0.0,103.6,0.171979760848,0.112074430161,0.8283552264,-0.521238815572
1431530358237800653,0.0,0.0,103.6,0.171979760848,0.112074430161,0.8283552264,-0.521238815572
1431530358259628639,0.0,0.0,103.6,0.171979760848,0.112074430161,0.8283552264,-0.521238815572
1431530358276489968,0.0,0.0,103.6,0.171979760848,0.112074430161,0.8283552264,-0.521238815572
1431530358301909907,0.0,0.0,103.6,0.163843284633,0.104140819557,0.830112554989,-0.522707579658
1431530358317644064,0.0,0.0,103.6,0.163843284633,0.104140819557,0.830112554989,-0.522707579658
1431530358339219756,0.0,0.0,103.6,0.163843284633,0.104140819557,0.830112554989,-0.522707579658
1431530358360475615,0.0,0.0,103.6,0.163843284633,0.104140819557,0.830112554989,-0.522707579658
1431530358381409255,0.0,0.0,103.4,0.15557289107,0.0979896722654,0.83406771949,-0.520121273357
1431530358397730484,0.0,0.0,103.4,0.15557289107,0.0979896722654,0.83406771949,-0.520121273357
1431530358422409205,0.0,0.0,103.4,0.15557289107,0.0979896722654,0.83406771949,-0.520121273357
1431530358441531549,0.0,0.0,103.4,0.144645281828,0.0911801208181,0.836043556603,-0.521339715996
1431530358459535822,0.0,0.0,103.4,0.14488337435,0.0908013206101,0.837404865133,-0.519150286395
1431530358483657438,0.0,0.0,103.4,0.14488337435,0.0908013206101,0.837404865133,-0.519150286395
1431530358497777963,0.0,0.0,103.4,0.14488337435,0.0908013206101,0.837404865133,-0.519150286395
1431530358520897571,0.0,0.0,103.4,0.131716335547,0.0826437856431,0.839590451142,-0.520488891328
1431530358539332753,0.0,0.0,103.4,0.131644201707,0.0827586401069,0.839136149854,-0.521221002697
1431530358557690315,0.0,0.0,103.6,0.131644201707,0.0827586401069,0.839136149854,-0.521221002697
1431530358577651212,0.0,0.0,103.6,0.131644201707,0.0827586401069,0.839136149854,-0.521221002697
1431530358602859271,0.0,0.0,103.6,0.116283830932,0.0764160838235,0.840564393537,-0.523536200386
1431530358623152172,0.0,0.0,103.6,0.116283830932,0.0764160838235,0.840564393537,-0.523536200386
1431530358640672441,0.0,0.0,103.4,0.116283830932,0.0764160838235,0.840564393537,-0.523536200386
1431530358659115983,0.0,0.0,103.4,0.116283830932,0.0764160838235,0.840564393537,-0.523536200386
