%time,field.position.x,field.position.y,field.position.z,field.orientation.x,field.orientation.y,field.orientation.z,field.orientation.w
1431532036574664973,0.0,0.0,115.3,0.0222501340794,-0.0233843008568,0.669174581954,0.742403855643
1431532036593578297,0.0,0.0,115.3,0.0100248728454,-0.00974716816446,0.672033354927,0.740388860331
1431532036611194482,0.0,0.0,115.6,0.0100248728454,-0.00974716816446,0.672033354927,0.740388860331
1431532036632494479,0.0,0.0,115.6,0.0100248728454,-0.00974716816446,0.672033354927,0.740388860331
1431532036656608491,0.0,0.0,115.6,0.015898050247,0.00974057940989,0.672665979296,0.739711331135
1431532036678767190,0.0,0.0,115.6,0.015898050247,0.00974057940989,0.672665979296,0.739711331135
1431532036696302603,0.0,0.0,115.6,0.015898050247,0.00974057940989,0.672665979296,0.739711331135
1431532036713602415,0.0,0.0,115.6,0.015898050247,0.00974057940989,0.672665979296,0.739711331135
1431532036733461156,0.0,0.0,115.6,0.00875232613736,-0.0109042262439,0.673305901635,0.739231802252
1431532036751596485,0.0,0.0,115.6,0.00875232613736,-0.0109042262439,0.673305901635,0.739231802252
1431532036776432393,0.0,0.0,115.6,0.00875232613736,-0.0109042262439,0.673305901635,0.739231802252
1431532036794940817,0.0,0.0,115.6,0.00875232613736,-0.0109042262439,0.673305901635,0.739231802252
1431532036815024692,0.0,0.0,115.6,0.0211284070259,-0.0102469610702,0.673335632104,0.738963948203
1431532036831824610,0.0,0.0,115.6,0.0211284070259,-0.0102469610702,0.673335632104,0.738963948203
1431532036858053950,0.0,0.0,115.6,0.0211284070259,-0.0102469610702,0.673335632104,0.738963948203
1431532036879215771,0.0,0.0,115.6,0.0271010406396,-0.00126452801168,0.673404996212,0.738775774942
1431532036902440928,0.0,0.0,115.6,0.0271010406396,-0.00126452801168,0.673404996212,0.738775774942
1431532036920559730,0.0,0.0,115.6,0.0271010406396,-0.00126452801168,0.673404996212,0.738775774942
1431532036938589971,0.0,0.0,115.6,0.0271010406396,-0.00126452801168,0.673404996212,0.738775774942
1431532036958349638,0.0,0.0,115.6,0.0243430407,-0.0214638795561,0.674397050792,0.737655296278
1431532036975286528,0.0,0.0,115.6,0.0243430407,-0.0214638795561,0.674397050792,0.737655296278
1431532036993171189,0.0,0.0,115.6,0.0243430407,-0.0214638795561,0.674397050792,0.737655296278
1431532037014856771,0.0,0.0,115.6,0.0243430407,-0.0214638795561,0.674397050792,0.737655296278
1431532037033928173,0.0,0.0,115.3,0.0228289904985,-0.0299496662963,0.676663828733,0.735328441967
1431532037052275948,0.0,0.0,115.3,0.0228289904985,-0.0299496662963,0.676663828733,0.735328441967
1431532037072967214,0.0,0.0,115.3,0.0228289904985,-0.0299496662963,0.676663828733,0.735328441967
1431532037092166681,0.0,0.0,115.3,0.0194104149679,-0.00821116741777,0.677213169347,0.735484966388
1431532037111166500,0.0,0.0,115.3,0.0193888626534,-0.00826192983495,0.675286334129,0.737254487582
1431532037136343705,0.0,0.0,115.3,0.0193888626534,-0.00826192983495,0.675286334129,0.737254487582
1431532037158598854,0.0,0.0,115.3,0.0193888626534,-0.00826192983495,0.675286334129,0.737254487582
1431532037177807195,0.0,0.0,115.3,0.0226297564992,-0.0194740649856,0.676373029096,0.735953925477
1431532037197270751,0.0,0.0,115.6,0.0226297564992,-0.0194740649856,0.676373029096,0.735953925477
1431532037231772563,0.0,0.0,115.6,0.0226297564992,-0.0194740649856,0.676373029096,0.735953925477
1431532037252539431,0.0,0.0,115.6,0.024492217045,-0.0212934980767,0.679527785836,0.732931583792
1431532037280010581,0.0,0.0,115.6,0.024492217045,-0.0212934980767,0.679527785836,0.732931583792
1431532037300168361,0.0,0.0,115.6,0.024492217045,-0.0212934980767,0.679527785836,0.732931583792
1431532037323617205,0.0,0.0,115.6,0.0208148271864,-0.0211351980472,0.68016226638,0.732461151028
1431532037344798398,0.0,0.0,115.6,0.0208148271864,-0.0211351980472,0.68016226638,0.732461151028
1431532037362414148,0.0,0.0,115.6,0.0208148271864,-0.0211351980472,0.68016226638,0.732461151028
1431532037382159845,0.0,0.0,115.6,0.0210887593151,-0.0137413057083,0.680336424742,0.732467603323
1431532037400021272,0.0,0.0,115.6,0.0210647562954,-0.0137780729507,0.679057641187,0.733653297337
1431532037417693964,0.0,0.0,115.6,0.0210647562954,-0.0137780729507,0.679057641187,0.733653297337
1431532037437193210,0.0,0.0,115.6,0.0210647562954,-0.0137780729507,0.679057641187,0.733653297337
1431532037458238523,0.0,0.0,115.6,0.0136716681045,-0.013491255233,0.679050384745,0.733840341288
1431532037477326704,0.0,0.0,115.6,0.0136481125691,-0.0135150841589,0.677769208483,0.735023789789
1431532037498293801,0.0,0.0,115.6,0.0136481125691,-0.0135150841589,0.677769208483,0.735023789789
1431532037515582586,0.0,0.0,115.6,0.0136481125691,-0.0135150841589,0.677769208483,0.735023789789
1431532037536429326,0.0,0.0,115.8,0.0194004088768,-0.0224405383783,0.675639416236,0.736635205241
1431532037554153773,0.0,0.0,115.8,0.0194004088768,-0.0224405383783,0.675639416236,0.736635205241
1431532037575199493,0.0,0.0,115.8,0.0194004088768,-0.0224405383783,0.675639416236,0.736635205241
1431532037596666453,0.0,0.0,115.8,0.0194004088768,-0.0224405383783,0.675639416236,0.736635205241
1431532037617402779,0.0,0.0,115.6,0.03127804297,-0.017511106789,0.67323300087,0.738561014207
1431532037633546706,0.0,0.0,115.6,0.03127804297,-0.017511106789,0.67323300087,0.738561014207
1431532037651541081,0.0,0.0,115.6,0.03127804297,-0.017511106789,0.67323300087,0.738561014207
1431532037674823745,0.0,0.0,115.6,0.0295873587832,-0.0273066002712,0.672938164471,0.738602169358
1431532037693791708,0.0,0.0,115.6,0.0296349485878,-0.0272549452456,0.674225590364,0.737427142896
1431532037715299647,0.0,0.0,115.6,0.0296349485878,-0.0272549452456,0.674225590364,0.737427142896
1431532037732267857,0.0,0.0,115.6,0.0296349485878,-0.0272549452456,0.674225590364,0.737427142896
1431532037755679006,0.0,0.0,115.6,0.042217156006,-0.0216495077914,0.674453344403,0.736791487991
1431532037775869698,0.0,0.0,115.6,0.042217156006,-0.0216495077914,0.674453344403,0.736791487991
1431532037796124874,0.0,0.0,115.8,0.042217156006,-0.0216495077914,0.674453344403,0.736791487991
1431532037816029669,0.0,0.0,115.8,0.0433577770695,-0.00997298495365,0.674684768182,0.736763942061
1431532037832724432,0.0,0.0,115.8,0.0433490619188,-0.0100107987719,0.67404188974,0.73735213678
1431532037862407235,0.0,0.0,115.8,0.0433490619188,-0.0100107987719,0.67404188974,0.73735213678
1431532037876688736,0.0,0.0,115.3,0.0433490619188,-0.0100107987719,0.67404188974,0.73735213678
1431532037894693344,0.0,0.0,115.3,0.0325475388914,-0.0304999013731,0.673469052273,0.737868449901
1431532037913627332,0.0,0.0,115.3,0.0326006947255,-0.0304430776216,0.674755197426,0.736692498451
1431532037934610611,0.0,0.0,115.3,0.0326006947255,-0.0304430776216,0.674755197426,0.736692498451
1431532037952621935,0.0,0.0,115.8,0.0326006947255,-0.0304430776216,0.674755197426,0.736692498451
1431532037976727109,0.0,0.0,115.8,0.0424299662842,-0.0178429316617,0.676472480026,0.735028102536
1431532037994556993,0.0,0.0,115.8,0.0424299662842,-0.0178429316617,0.676472480026,0.735028102536
1431532038012224720,0.0,0.0,115.8,0.0424299662842,-0.0178429316617,0.676472480026,0.735028102536
1431532038038802044,0.0,0.0,115.6,0.0499644576982,-0.014458481808,0.67656735932,0.734541430808
1431532038058315071,0.0,0.0,115.6,0.0500394392015,-0.0141968043472,0.68040217711,0.730990685751
1431532038078430786,0.0,0.0,115.6,0.0500394392015,-0.0141968043472,0.68040217711,0.730990685751
1431532038100732961,0.0,0.0,115.8,0.0500394392015,-0.0141968043472,0.68040217711,0.730990685751
1431532038125414641,0.0,0.0,115.8,0.052875013543,-0.0244625924053,0.684599111788,0.726587827214
1431532038151363718,0.0,0.0,115.8,0.052875013543,-0.0244625924053,0.684599111788,0.726587827214
1431532038173017633,0.0,0.0,115.8,0.052875013543,-0.0244625924053,0.684599111788,0.726587827214
1431532038195181588,0.0,0.0,115.8,0.0385934626286,-0.00911369210007,0.68679322305,0.725770317684
1431532038222679891,0.0,0.0,115.8,0.0385934626286,-0.00911369210007,0.68679322305,0.725770317684
1431532038248596274,0.0,0.0,115.8,0.0385934626286,-0.00911369210007,0.68679322305,0.725770317684
1431532038275461212,0.0,0.0,115.8,0.0286251029041,-0.0137162859967,0.687972542097,0.725042238978
1431532038297381969,0.0,0.0,115.8,0.0286251029041,-0.0137162859967,0.687972542097,0.725042238978
1431532038316630227,0.0,0.0,115.8,0.0286251029041,-0.0137162859967,0.687972542097,0.725042238978
1431532038338387691,0.0,0.0,115.8,0.0286251029041,-0.0137162859967,0.687972542097,0.725042238978
1431532038358630903,0.0,0.0,115.6,0.0301834680006,-0.00144533964576,0.687459599296,0.72559366631
1431532038382627209,0.0,0.0,115.6,0.0301834680006,-0.00144533964576,0.687459599296,0.72559366631
1431532038400895489,0.0,0.0,115.6,0.0301834680006,-0.00144533964576,0.687459599296,0.72559366631
1431532038419163702,0.0,0.0,115.6,0.0235250696015,0.00305628131126,0.687443128896,0.725850655974
1431532038446086883,0.0,0.0,115.6,0.0235250696015,0.00305628131126,0.687443128896,0.725850655974
1431532038459655184,0.0,0.0,115.6,0.0235250696015,0.00305628131126,0.687443128896,0.725850655974
1431532038477374000,0.0,0.0,115.6,0.0235250696015,0.00305628131126,0.687443128896,0.725850655974
1431532038497911926,0.0,0.0,115.6,0.0243288385778,-0.0129852563242,0.687979215643,0.725206239338
1431532038515462288,0.0,0.0,115.6,0.0243288385778,-0.0129852563242,0.687979215643,0.725206239338
1431532038536316873,0.0,0.0,115.6,0.0243288385778,-0.0129852563242,0.687979215643,0.725206239338
1431532038559476681,0.0,0.0,115.6,0.0239256185101,-0.00495450622238,0.688073025008,0.725229984145
1431532038578039833,0.0,0.0,115.6,0.0239212879793,-0.00497537279126,0.687440201647,0.725829860785
1431532038599221978,0.0,0.0,115.8,0.0239212879793,-0.00497537279126,0.687440201647,0.725829860785
1431532038617119302,0.0,0.0,115.8,0.0239212879793,-0.00497537279126,0.687440201647,0.725829860785
1431532038637031602,0.0,0.0,115.8,0.0102017168659,-0.00956192113446,0.685481322049,0.727955940809
1431532038654205768,0.0,0.0,115.8,0.0102017168659,-0.00956192113446,0.685481322049,0.727955940809
1431532038696053106,0.0,0.0,115.8,0.0102017168659,-0.00956192113446,0.685481322049,0.727955940809
1431532038702356513,0.0,0.0,115.8,0.0102017168659,-0.00956192113446,0.685481322049,0.727955940809
1431532038723855088,0.0,0.0,115.8,0.0268743004705,-0.00828317357097,0.683610402499,0.729305134086
1431532038739287043,0.0,0.0,115.8,0.0268743004705,-0.00828317357097,0.683610402499,0.729305134086
1431532038760241597,0.0,0.0,115.8,0.0268743004705,-0.00828317357097,0.683610402499,0.729305134086
1431532038779080639,0.0,0.0,115.8,0.0268743004705,-0.00828317357097,0.683610402499,0.729305134086
1431532038798010434,0.0,0.0,115.8,0.0266065040849,0.00214642739546,0.681730878115,0.731115925565
1431532038816069631,0.0,0.0,115.8,0.0266065040849,0.00214642739546,0.681730878115,0.731115925565
1431532038837315130,0.0,0.0,115.8,0.0266065040849,0.00214642739546,0.681730878115,0.731115925565
1431532038857155338,0.0,0.0,115.8,0.0263453982986,-0.00524997967785,0.681724426803,0.731115697822
1431532038874969024,0.0,0.0,115.8,0.0263408091288,-0.00527295671977,0.681086472207,0.731710034835
1431532038896626219,0.0,0.0,115.8,0.0263408091288,-0.00527295671977,0.681086472207,0.731710034835
1431532038918284520,0.0,0.0,115.8,0.0263408091288,-0.00527295671977,0.681086472207,0.731710034835
1431532038938064970,0.0,0.0,115.6,0.0271110391155,-0.00102810160941,0.679823065783,0.73287415959
1431532038956349866,0.0,0.0,115.6,0.0271110391155,-0.00102810160941,0.679823065783,0.73287415959
1431532038977103127,0.0,0.0,115.6,0.0271110391155,-0.00102810160941,0.679823065783,0.73287415959
1431532038998929200,0.0,0.0,115.6,0.0271110391155,-0.00102810160941,0.679823065783,0.73287415959
1431532039018624985,0.0,0.0,115.8,0.0507749024104,0.00548075562102,0.67983313741,0.731586478745
1431532039035994229,0.0,0.0,115.8,0.0507652642853,0.00556932123332,0.681108314336,0.730399435066
1431532039054479569,0.0,0.0,115.8,0.0507652642853,0.00556932123332,0.681108314336,0.730399435066
1431532039074938036,0.0,0.0,115.8,0.0507652642853,0.00556932123332,0.681108314336,0.730399435066
1431532039098923093,0.0,0.0,115.6,0.0354970939674,-0.00751801389256,0.679810738149,0.732489451176
1431532039117959073,0.0,0.0,115.6,0.0354970939674,-0.00751801389256,0.679810738149,0.732489451176
1431532039137888719,0.0,0.0,115.6,0.0354970939674,-0.00751801389256,0.679810738149,0.732489451176
1431532039160261091,0.0,0.0,115.6,0.0354970939674,-0.00751801389256,0.679810738149,0.732489451176
1431532039183906566,0.0,0.0,115.6,0.0422043624696,-0.00958673949416,0.680444731387,0.731520234677
1431532039201239331,0.0,0.0,115.6,0.0422043624696,-0.00958673949416,0.680444731387,0.731520234677
1431532039225789727,0.0,0.0,115.6,0.0422043624696,-0.00958673949416,0.680444731387,0.731520234677
1431532039244888201,0.0,0.0,115.6,0.047899769186,-0.00547765877361,0.680493645512,0.731166195734
1431532039263954689,0.0,0.0,115.6,0.047899769186,-0.00547765877361,0.680493645512,0.731166195734
1431532039281753973,0.0,0.0,115.6,0.047899769186,-0.00547765877361,0.680493645512,0.731166195734
1431532039302731776,0.0,0.0,115.6,0.047899769186,-0.00547765877361,0.680493645512,0.731166195734
1431532039322786467,0.0,0.0,115.6,0.0122320562555,-0.0183832646504,0.678301620455,0.734451730251
1431532039341962852,0.0,0.0,115.6,0.0122320562555,-0.0183832646504,0.678301620455,0.734451730251
1431532039360262333,0.0,0.0,115.6,0.0122320562555,-0.0183832646504,0.678301620455,0.734451730251
1431532039380488543,0.0,0.0,115.6,0.0122320562555,-0.0183832646504,0.678301620455,0.734451730251
1431532039407865362,0.0,0.0,115.6,0.0363237152892,-0.0186249855045,0.680267880799,0.73182600936
1431532039428548289,0.0,0.0,115.6,0.0363237152892,-0.0186249855045,0.680267880799,0.73182600936
1431532039447475050,0.0,0.0,115.6,0.0363237152892,-0.0186249855045,0.680267880799,0.73182600936
1431532039466755215,0.0,0.0,115.6,0.0370076727774,-0.0167992880249,0.680311818813,0.731795084201
1431532039487884279,0.0,0.0,115.6,0.0370076727774,-0.0167992880249,0.680311818813,0.731795084201
1431532039509919339,0.0,0.0,115.6,0.0370076727774,-0.0167992880249,0.680311818813,0.731795084201
1431532039532150709,0.0,0.0,115.6,0.0370076727774,-0.0167992880249,0.680311818813,0.731795084201
1431532039558697914,0.0,0.0,115.6,0.0371788084014,-0.0130047446774,0.682295313894,0.730014874821
1431532039580471950,0.0,0.0,115.8,0.0371788084014,-0.0130047446774,0.682295313894,0.730014874821
1431532039598087105,0.0,0.0,115.8,0.0371788084014,-0.0130047446774,0.682295313894,0.730014874821
1431532039621469302,0.0,0.0,115.8,0.0353961910703,-0.0289818901515,0.68184585472,0.730063963021
1431532039639387276,0.0,0.0,115.8,0.0354970900326,-0.0288582206357,0.684388811774,0.72768064013
1431532039656995173,0.0,0.0,115.8,0.0354970900326,-0.0288582206357,0.684388811774,0.72768064013
1431532039686683177,0.0,0.0,115.8,0.0354970900326,-0.0288582206357,0.684388811774,0.72768064013
1431532039704050739,0.0,0.0,115.8,0.0354970900326,-0.0288582206357,0.684388811774,0.72768064013
1431532039721645236,0.0,0.0,115.8,0.0354970900326,-0.0288582206357,0.684388811774,0.72768064013
1431532039738591596,0.0,0.0,115.8,0.0354970900326,-0.0288582206357,0.684388811774,0.72768064013
1431532039765948584,0.0,0.0,115.6,0.0345089155474,-0.00103743361372,0.68556481856,0.727192504109
1431532039776533056,0.0,0.0,115.6,0.0345089155474,-0.00103743361372,0.68556481856,0.727192504109
1431532039798969546,0.0,0.0,115.6,0.0345089155474,-0.00103743361372,0.68556481856,0.727192504109
1431532039819232477,0.0,0.0,115.6,0.0345089155474,-0.00103743361372,0.68556481856,0.727192504109
1431532039837244325,0.0,0.0,115.8,0.0345089155474,-0.00103743361372,0.68556481856,0.727192504109
1431532039860798522,0.0,0.0,115.8,0.0345089155474,-0.00103743361372,0.68556481856,0.727192504109
1431532039876206205,0.0,0.0,115.8,0.0345089155474,-0.00103743361372,0.68556481856,0.727192504109
1431532039900446258,0.0,0.0,115.8,0.021748608623,0.00486173965184,0.684257116203,0.728900240387
1431532039918415280,0.0,0.0,115.6,0.021748608623,0.00486173965184,0.684257116203,0.728900240387
1431532039935289940,0.0,0.0,115.6,0.021748608623,0.00486173965184,0.684257116203,0.728900240387
1431532039958263472,0.0,0.0,115.6,0.021748608623,0.00486173965184,0.684257116203,0.728900240387
1431532039978113101,0.0,0.0,115.6,0.0161493181825,0.00316069781501,0.68299169506,0.730240750705
1431532040002284586,0.0,0.0,115.8,0.0161493181825,0.00316069781501,0.68299169506,0.730240750705
1431532040019286105,0.0,0.0,115.8,0.0161493181825,0.00316069781501,0.68299169506,0.730240750705
1431532040043772774,0.0,0.0,115.8,0.0283884972619,0.000281620600224,0.683013284389,0.729854004073
1431532040067241677,0.0,0.0,115.8,0.028386999123,0.000405422920505,0.686189753502,0.72686837605
1431532040086510402,0.0,0.0,115.6,0.028386999123,0.000405422920505,0.686189753502,0.72686837605
1431532040106132263,0.0,0.0,115.6,0.028386999123,0.000405422920505,0.686189753502,0.72686837605
1431532040128399607,0.0,0.0,115.6,0.0217443598333,0.00488070741984,0.684892618828,0.728303138937
1431532040150610188,0.0,0.0,115.8,0.0217443598333,0.00488070741984,0.684892618828,0.728303138937
1431532040173088754,0.0,0.0,115.8,0.0217443598333,0.00488070741984,0.684892618828,0.728303138937
1431532040193782205,0.0,0.0,115.8,0.0159121454731,-0.00419453392904,0.684900151309,0.728451091185
1431532040211613217,0.0,0.0,115.8,0.0159048041344,-0.00422228538657,0.683628367389,0.729644752473
1431532040232647407,0.0,0.0,115.8,0.0159048041344,-0.00422228538657,0.683628367389,0.729644752473
1431532040256971770,0.0,0.0,115.8,0.0159048041344,-0.00422228538657,0.683628367389,0.729644752473
1431532040278084943,0.0,0.0,115.8,0.0235508319737,0.00285097677226,0.681086029254,0.731819001529
1431532040302372271,0.0,0.0,115.8,0.0235508319737,0.00285097677226,0.681086029254,0.731819001529
1431532040324903497,0.0,0.0,115.8,0.0235508319737,0.00285097677226,0.681086029254,0.731819001529
1431532040347566988,0.0,0.0,115.8,0.0198698006688,0.00288074808007,0.677242193259,0.73548616845
1431532040370166043,0.0,0.0,115.8,0.0198698006688,0.00288074808007,0.677242193259,0.73548616845
1431532040389816443,0.0,0.0,115.8,0.0198698006688,0.00288074808007,0.677242193259,0.73548616845
1431532040417718423,0.0,0.0,115.8,0.0288725829192,-0.00309823468101,0.675979146342,0.736348401647
1431532040442553415,0.0,0.0,115.8,0.0288725829192,-0.00309823468101,0.675979146342,0.736348401647
1431532040463410352,0.0,0.0,115.8,0.0288725829192,-0.00309823468101,0.675979146342,0.736348401647
1431532040486041081,0.0,0.0,115.6,0.0213236002073,-0.00647630787383,0.675948387334,0.736611932547
1431532040503937896,0.0,0.0,115.6,0.021312270209,-0.0065134958369,0.674662380908,0.737789965572
1431532040525663904,0.0,0.0,115.6,0.021312270209,-0.0065134958369,0.674662380908,0.737789965572
1431532040546272645,0.0,0.0,115.6,0.021312270209,-0.0065134958369,0.674662380908,0.737789965572
1431532040566957121,0.0,0.0,115.6,0.0211462501234,-0.0102100881655,0.674623688495,0.737788227831
1431532040592143598,0.0,0.0,115.6,0.0211104996329,-0.0102838027926,0.672045526695,0.740137419845
1431532040620915432,0.0,0.0,115.6,0.0211104996329,-0.0102838027926,0.672045526695,0.740137419845
1431532040643131000,0.0,0.0,115.6,0.0228682075308,-0.0122211271893,0.672021778074,0.740077306049
1431532040662060020,0.0,0.0,115.6,0.0228039374365,-0.0123406362414,0.668139521947,0.743584069455
1431532040691739302,0.0,0.0,115.6,0.0228039374365,-0.0123406362414,0.668139521947,0.743584069455
1431532040713379448,0.0,0.0,115.6,0.0228039374365,-0.0123406362414,0.668139521947,0.743584069455
1431532040738806027,0.0,0.0,115.6,0.0242902198745,-0.0180663003806,0.665436065903,0.74584075794
1431532040759556517,0.0,0.0,115.6,0.0242902198745,-0.0180663003806,0.665436065903,0.74584075794
1431532040773604750,0.0,0.0,115.6,0.0242902198745,-0.0180663003806,0.665436065903,0.74584075794
1431532040793092546,0.0,0.0,115.6,0.0240791345075,-0.0217595275107,0.665339404398,0.745835233278
1431532040811124001,0.0,0.0,115.6,0.0239840101075,-0.0218643320338,0.662080417254,0.748729750532
1431532040828187963,0.0,0.0,115.6,0.0239840101075,-0.0218643320338,0.662080417254,0.748729750532
1431532040849383299,0.0,0.0,115.6,0.0239840101075,-0.0218643320338,0.662080417254,0.748729750532
1431532040870750347,0.0,0.0,115.6,0.0254887921927,-0.0275152204334,0.661903447102,0.748650159174
1431532040886670273,0.0,0.0,115.6,0.0253926397115,-0.0276039803546,0.659287466725,0.750954905661
1431532040905505008,0.0,0.0,115.6,0.0253926397115,-0.0276039803546,0.659287466725,0.750954905661
1431532040924530453,0.0,0.0,115.6,0.0253926397115,-0.0276039803546,0.659287466725,0.750954905661
1431532040943553185,0.0,0.0,115.6,0.0288422900627,-0.0315338075855,0.659152406824,0.750794143465
1431532040969508881,0.0,0.0,115.6,0.0287044937805,-0.0316592917436,0.655871852226,0.753661631463
1431532040993293440,0.0,0.0,115.6,0.0287044937805,-0.0316592917436,0.655871852226,0.753661631463
1431532041012546267,0.0,0.0,115.6,0.0287044937805,-0.0316592917436,0.655871852226,0.753661631463
1431532041045325559,0.0,0.0,115.6,0.0319494238785,-0.0357709498524,0.651767360428,0.756900905893
1431532041065017868,0.0,0.0,115.3,0.0319494238785,-0.0357709498524,0.651767360428,0.756900905893
1431532041085508992,0.0,0.0,115.3,0.0319494238785,-0.0357709498524,0.651767360428,0.756900905893
1431532041116280885,0.0,0.0,115.3,0.0393191022937,-0.0363212835116,0.651797150294,0.756501981113
1431532041140344651,0.0,0.0,115.3,0.0391284833475,-0.0365265551625,0.647829215714,0.759902677865
1431532041159644585,0.0,0.0,115.3,0.0391284833475,-0.0365265551625,0.647829215714,0.759902677865
1431532041177371185,0.0,0.0,115.3,0.0391284833475,-0.0365265551625,0.647829215714,0.759902677865
1431532041200827894,0.0,0.0,115.3,0.0442995646036,-0.0390425748214,0.643784110035,0.762925452186
1431532041218259972,0.0,0.0,115.3,0.0442995646036,-0.0390425748214,0.643784110035,0.762925452186
1431532041239107141,0.0,0.0,115.0,0.0442995646036,-0.0390425748214,0.643784110035,0.762925452186
1431532041257292393,0.0,0.0,115.0,0.0442995646036,-0.0390425748214,0.643784110035,0.762925452186
1431532041276696500,0.0,0.0,115.0,0.0494423457433,-0.0416131521393,0.639724212212,0.765882975608
1431532041297942679,0.0,0.0,115.0,0.0494423457433,-0.0416131521393,0.639724212212,0.765882975608
1431532041318773528,0.0,0.0,115.3,0.0494423457433,-0.0416131521393,0.639724212212,0.765882975608
1431532041336864338,0.0,0.0,115.3,0.0494423457433,-0.0416131521393,0.639724212212,0.765882975608
1431532041356324410,0.0,0.0,115.3,0.0585785534337,-0.0409108382038,0.635873128234,0.768479161191
1431532041379239031,0.0,0.0,115.3,0.0585785534337,-0.0409108382038,0.635873128234,0.768479161191
1431532041406691798,0.0,0.0,115.0,0.0585785534337,-0.0409108382038,0.635873128234,0.768479161191
1431532041430576864,0.0,0.0,115.0,0.0654279672323,-0.0387742117731,0.632724193792,0.770633399351
1431532041447525939,0.0,0.0,115.0,0.0654279672323,-0.0387742117731,0.632724193792,0.770633399351
1431532041473940534,0.0,0.0,115.3,0.0654279672323,-0.0387742117731,0.632724193792,0.770633399351
1431532041494140201,0.0,0.0,115.3,0.0654279672323,-0.0387742117731,0.632724193792,0.770633399351
1431532041513874022,0.0,0.0,115.3,0.0749861971374,-0.034500193585,0.629686134515,0.77245205604
1431532041534142520,0.0,0.0,115.3,0.0749861971374,-0.034500193585,0.629686134515,0.77245205604
1431532041552092775,0.0,0.0,115.0,0.0749861971374,-0.034500193585,0.629686134515,0.77245205604
1431532041573735710,0.0,0.0,115.0,0.0830669403315,-0.0279077092964,0.630012738855,0.771624903736
1431532041595589599,0.0,0.0,115.0,0.0829444421604,-0.0282697069126,0.626641616393,0.774365112715
1431532041618925877,0.0,0.0,115.0,0.0829444421604,-0.0282697069126,0.626641616393,0.774365112715
1431532041635707269,0.0,0.0,114.8,0.0829444421604,-0.0282697069126,0.626641616393,0.774365112715
1431532041655309115,0.0,0.0,114.8,0.0882406716944,-0.0242815452978,0.623443182994,0.776493778466
1431532041672177372,0.0,0.0,114.8,0.0882406716944,-0.0242815452978,0.623443182994,0.776493778466
1431532041693244883,0.0,0.0,114.8,0.0882406716944,-0.0242815452978,0.623443182994,0.776493778466
1431532041711486184,0.0,0.0,114.8,0.0882406716944,-0.0242815452978,0.623443182994,0.776493778466
1431532041731397926,0.0,0.0,115.0,0.0967176214192,-0.014500028854,0.620300737445,0.778243179215
1431532041748987279,0.0,0.0,115.0,0.0967176214192,-0.014500028854,0.620300737445,0.778243179215
1431532041769255607,0.0,0.0,115.0,0.0967176214192,-0.014500028854,0.620300737445,0.778243179215
1431532041790179138,0.0,0.0,115.0,0.0967176214192,-0.014500028854,0.620300737445,0.778243179215
1431532041811554962,0.0,0.0,114.8,0.101188056453,-0.00801989158828,0.616957671156,0.780422892137
1431532041828166381,0.0,0.0,114.8,0.101188056453,-0.00801989158828,0.616957671156,0.780422892137
1431532041849260221,0.0,0.0,114.8,0.101188056453,-0.00801989158828,0.616957671156,0.780422892137
1431532041870256437,0.0,0.0,114.8,0.101188056453,-0.00801989158828,0.616957671156,0.780422892137
1431532041894156037,0.0,0.0,115.0,0.104131240517,0.000395179163051,0.61278284888,0.783360522812
1431532041911350044,0.0,0.0,115.0,0.104131240517,0.000395179163051,0.61278284888,0.783360522812
1431532041932024483,0.0,0.0,115.0,0.104131240517,0.000395179163051,0.61278284888,0.783360522812
1431532041956325088,0.0,0.0,115.0,0.105067414233,0.00773452317055,0.612603570144,0.783337654823
1431532041975777396,0.0,0.0,115.0,0.105100146089,0.00727624040294,0.60918153279,0.78600182934
1431532041995144656,0.0,0.0,115.0,0.105100146089,0.00727624040294,0.60918153279,0.78600182934
1431532042012693025,0.0,0.0,115.0,0.105100146089,0.00727624040294,0.60918153279,0.78600182934
1431532042035145443,0.0,0.0,115.0,0.104494883329,0.0166815010332,0.608814577307,0.786223477988
1431532042053253221,0.0,0.0,114.8,0.104580751847,0.0161344185392,0.604691689534,0.789398826634
1431532042073923621,0.0,0.0,114.8,0.104580751847,0.0161344185392,0.604691689534,0.789398826634
1431532042096620689,0.0,0.0,114.8,0.104580751847,0.0161344185392,0.604691689534,0.789398826634
1431532042115913784,0.0,0.0,114.8,0.103652253309,0.021244304279,0.599567065923,0.793299579844
1431532042138411587,0.0,0.0,115.0,0.103652253309,0.021244304279,0.599567065923,0.793299579844
1431532042159118238,0.0,0.0,115.0,0.103652253309,0.021244304279,0.599567065923,0.793299579844
1431532042181400417,0.0,0.0,115.0,0.100549501274,0.0254228477984,0.599299581118,0.793777984499
1431532042199022479,0.0,0.0,115.0,0.100681169993,0.0248962930068,0.595137288571,0.796903434775
1431532042223869328,0.0,0.0,114.8,0.100681169993,0.0248962930068,0.595137288571,0.796903434775
1431532042240833235,0.0,0.0,114.8,0.100681169993,0.0248962930068,0.595137288571,0.796903434775
1431532042260924975,0.0,0.0,114.8,0.0969020596969,0.0285714818501,0.594876151299,0.797443431139
1431532042279243232,0.0,0.0,114.8,0.0970257412062,0.0281486108362,0.591392765863,0.800030160517
1431532042296915020,0.0,0.0,114.8,0.0970257412062,0.0281486108362,0.591392765863,0.800030160517
1431532042321103993,0.0,0.0,114.8,0.0970257412062,0.0281486108362,0.591392765863,0.800030160517
1431532042340763734,0.0,0.0,114.8,0.0905261467817,0.0323601759745,0.586122692193,0.804498617436
1431532042360157883,0.0,0.0,114.8,0.0905261467817,0.0323601759745,0.586122692193,0.804498617436
1431532042383295221,0.0,0.0,114.8,0.0905261467817,0.0323601759745,0.586122692193,0.804498617436
1431532042407821878,0.0,0.0,114.8,0.0860744898238,0.035563292147,0.585869188564,0.805036476406
1431532042428039501,0.0,0.0,114.8,0.0862594248447,0.0351123507077,0.581648160759,0.80809148711
1431532042456221349,0.0,0.0,114.8,0.0862594248447,0.0351123507077,0.581648160759,0.80809148711
1431532042480169666,0.0,0.0,115.0,0.0805144502112,0.0341891464786,0.58167354777,0.808705390976
1431532042497962704,0.0,0.0,115.0,0.0806627867425,0.0338376900021,0.578141173384,0.811234435418
1431532042515914639,0.0,0.0,115.0,0.0806627867425,0.0338376900021,0.578141173384,0.811234435418
1431532042535502853,0.0,0.0,115.0,0.0806627867425,0.0338376900021,0.578141173384,0.811234435418
1431532042558114185,0.0,0.0,114.8,0.0735540804578,0.0347476801242,0.57447189412,0.814471877256
1431532042578850650,0.0,0.0,114.8,0.0735540804578,0.0347476801242,0.57447189412,0.814471877256
1431532042597365254,0.0,0.0,114.8,0.0735540804578,0.0347476801242,0.57447189412,0.814471877256
1431532042617976050,0.0,0.0,114.8,0.0735540804578,0.0347476801242,0.57447189412,0.814471877256
1431532042637582325,0.0,0.0,114.8,0.0642483483344,0.034339992081,0.57231615663,0.81679075138
1431532042659406647,0.0,0.0,114.8,0.0642483483344,0.034339992081,0.57231615663,0.81679075138
1431532042676847942,0.0,0.0,114.8,0.0642483483344,0.034339992081,0.57231615663,0.81679075138
1431532042698853290,0.0,0.0,114.8,0.0642483483344,0.034339992081,0.57231615663,0.81679075138
1431532042720377781,0.0,0.0,114.5,0.0491818115409,0.0330996931024,0.569499854267,0.819850886271
1431532042744399626,0.0,0.0,114.5,0.0491818115409,0.0330996931024,0.569499854267,0.819850886271
1431532042761435355,0.0,0.0,114.5,0.0491818115409,0.0330996931024,0.569499854267,0.819850886271
1431532042780579450,0.0,0.0,114.5,0.0491818115409,0.0330996931024,0.569499854267,0.819850886271
1431532042799452445,0.0,0.0,114.5,0.0450693709008,0.0206965545558,0.570108430305,0.820071205525
1431532042816491421,0.0,0.0,114.5,0.0450693709008,0.0206965545558,0.570108430305,0.820071205525
1431532042834360639,0.0,0.0,114.5,0.0450693709008,0.0206965545558,0.570108430305,0.820071205525
1431532042856653037,0.0,0.0,114.5,0.0450693709008,0.0206965545558,0.570108430305,0.820071205525
1431532042875631749,0.0,0.0,114.5,0.0487637430542,0.016899450533,0.570269946307,0.819834552989
1431532042894109009,0.0,0.0,114.5,0.0487637430542,0.016899450533,0.570269946307,0.819834552989
1431532042910387840,0.0,0.0,114.5,0.0487637430542,0.016899450533,0.570269946307,0.819834552989
1431532042928352664,0.0,0.0,114.5,0.0487637430542,0.016899450533,0.570269946307,0.819834552989
1431532042952304591,0.0,0.0,114.5,0.0428844995278,-0.0157968417616,0.57209955011,0.818909936595
1431532042974643590,0.0,0.0,114.5,0.0428844995278,-0.0157968417616,0.57209955011,0.818909936595
1431532042996350458,0.0,0.0,114.5,0.0428844995278,-0.0157968417616,0.57209955011,0.818909936595
1431532043013207137,0.0,0.0,114.5,0.0428844995278,-0.0157968417616,0.57209955011,0.818909936595
1431532043033240653,0.0,0.0,114.5,0.0493500696016,-0.043101284827,0.573621284067,0.816495849556
1431532043054537795,0.0,0.0,114.5,0.0493500696016,-0.043101284827,0.573621284067,0.816495849556
1431532043072378472,0.0,0.0,114.5,0.0493500696016,-0.043101284827,0.573621284067,0.816495849556
1431532043095390535,0.0,0.0,114.5,0.049792650107,-0.0725397621615,0.571748092583,0.815697734169
1431532043117399612,0.0,0.0,114.5,0.0499191158663,-0.0724527913214,0.573170161303,0.814699110772
1431532043139495170,0.0,0.0,114.8,0.0499191158663,-0.0724527913214,0.573170161303,0.814699110772
1431532043156539111,0.0,0.0,114.8,0.0499191158663,-0.0724527913214,0.573170161303,0.814699110772
1431532043177932390,0.0,0.0,114.8,0.0759188992539,-0.116712473373,0.574805300865,0.806358099974
1431532043198781870,0.0,0.0,114.8,0.0759188992539,-0.116712473373,0.574805300865,0.806358099974
1431532043223584988,0.0,0.0,115.0,0.0759188992539,-0.116712473373,0.574805300865,0.806358099974
1431532043242138026,0.0,0.0,115.0,0.0759188992539,-0.116712473373,0.574805300865,0.806358099974
1431532043261176869,0.0,0.0,115.0,0.0971082976015,-0.152462013233,0.576887444275,0.796571522022
1431532043278207635,0.0,0.0,115.0,0.0971082976015,-0.152462013233,0.576887444275,0.796571522022
1431532043296865982,0.0,0.0,115.0,0.0971082976015,-0.152462013233,0.576887444275,0.796571522022
1431532043318170794,0.0,0.0,114.8,0.0971082976015,-0.152462013233,0.576887444275,0.796571522022
1431532043341592283,0.0,0.0,114.8,0.108194524278,-0.190064258307,0.576812043328,0.787056153843
1431532043359338151,0.0,0.0,114.8,0.108194524278,-0.190064258307,0.576812043328,0.787056153843
1431532043376199662,0.0,0.0,114.8,0.108194524278,-0.190064258307,0.576812043328,0.787056153843
1431532043396301284,0.0,0.0,115.0,0.131115288658,-0.220527271535,0.570459128991,0.780226176016
1431532043415052685,0.0,0.0,115.0,0.132842370155,-0.219491232404,0.5765662651,0.775724078225
1431532043432198508,0.0,0.0,115.0,0.132842370155,-0.219491232404,0.5765662651,0.775724078225
1431532043449020216,0.0,0.0,115.0,0.132842370155,-0.219491232404,0.5765662651,0.775724078225
1431532043473300171,0.0,0.0,115.0,0.175368639796,-0.246263727323,0.571961309606,0.76253542678
1431532043491144458,0.0,0.0,115.0,0.178362644245,-0.24410397448,0.581229840626,0.755494466655
1431532043509322635,0.0,0.0,115.0,0.178362644245,-0.24410397448,0.581229840626,0.755494466655
1431532043530160308,0.0,0.0,115.0,0.178362644245,-0.24410397448,0.581229840626,0.755494466655
1431532043550906506,0.0,0.0,115.0,0.193243756116,-0.27125418176,0.573335976435,0.748574563905
1431532043577231159,0.0,0.0,115.3,0.196776024868,-0.268702765965,0.583080478279,0.741009565019
1431532043597351944,0.0,0.0,115.3,0.196776024868,-0.268702765965,0.583080478279,0.741009565019
1431532043619493930,0.0,0.0,115.3,0.196776024868,-0.268702765965,0.583080478279,0.741009565019
1431532043641978262,0.0,0.0,115.3,0.253300685257,-0.289981822938,0.591388339897,0.708526031031
1431532043660088660,0.0,0.0,115.3,0.253300685257,-0.289981822938,0.591388339897,0.708526031031
1431532043682550797,0.0,0.0,115.3,0.253300685257,-0.289981822938,0.591388339897,0.708526031031
1431532043701929388,0.0,0.0,115.3,0.278650817066,-0.288957334118,0.60652792896,0.686280738911
1431532043724971041,0.0,0.0,115.6,0.278650817066,-0.288957334118,0.60652792896,0.686280738911
1431532043745197314,0.0,0.0,115.6,0.278650817066,-0.288957334118,0.60652792896,0.686280738911
1431532043763203083,0.0,0.0,115.6,0.278650817066,-0.288957334118,0.60652792896,0.686280738911
1431532043784116557,0.0,0.0,115.6,0.278650817066,-0.288957334118,0.60652792896,0.686280738911
1431532043805809434,0.0,0.0,115.8,0.278650817066,-0.288957334118,0.60652792896,0.686280738911
1431532043823720899,0.0,0.0,115.8,0.278650817066,-0.288957334118,0.60652792896,0.686280738911
1431532043843788735,0.0,0.0,115.8,0.327017624108,-0.331515280043,0.603081930471,0.647649039033
1431532043865239584,0.0,0.0,115.8,0.327017624108,-0.331515280043,0.603081930471,0.647649039033
1431532043882929160,0.0,0.0,115.8,0.327017624108,-0.331515280043,0.603081930471,0.647649039033
1431532043900751060,0.0,0.0,115.8,0.327017624108,-0.331515280043,0.603081930471,0.647649039033
1431532043921716428,0.0,0.0,115.8,0.341203622329,-0.298753879215,0.630985933289,0.629430663183
1431532043941685184,0.0,0.0,115.8,0.341203622329,-0.298753879215,0.630985933289,0.629430663183
1431532043958714347,0.0,0.0,115.8,0.341203622329,-0.298753879215,0.630985933289,0.629430663183
1431532043980810529,0.0,0.0,115.8,0.370754540503,-0.303873790196,0.629314912745,0.611689897681
1431532044002616154,0.0,0.0,115.8,0.380874834957,-0.291088594363,0.649754485847,0.58993296098
1431532044026203281,0.0,0.0,115.8,0.380874834957,-0.291088594363,0.649754485847,0.58993296098
1431532044048164745,0.0,0.0,116.1,0.380874834957,-0.291088594363,0.649754485847,0.58993296098
1431532044068131155,0.0,0.0,116.1,0.402033688459,-0.268764151923,0.674376135451,0.557988863616
1431532044094997791,0.0,0.0,116.1,0.402033688459,-0.268764151923,0.674376135451,0.557988863616
1431532044119031302,0.0,0.0,116.1,0.402033688459,-0.268764151923,0.674376135451,0.557988863616
1431532044139065450,0.0,0.0,115.8,0.419071979628,-0.253866341146,0.6946014436,0.526744142134
1431532044155506581,0.0,0.0,115.8,0.419071979628,-0.253866341146,0.6946014436,0.526744142134
1431532044173730220,0.0,0.0,115.8,0.419071979628,-0.253866341146,0.6946014436,0.526744142134
1431532044196454307,0.0,0.0,115.8,0.419071979628,-0.253866341146,0.6946014436,0.526744142134
1431532044218966684,0.0,0.0,116.3,0.439354425,-0.20228311185,0.732424168707,0.479170187916
1431532044242495432,0.0,0.0,116.3,0.439354425,-0.20228311185,0.732424168707,0.479170187916
1431532044266034878,0.0,0.0,116.3,0.439354425,-0.20228311185,0.732424168707,0.479170187916
1431532044287054025,0.0,0.0,116.3,0.435439814094,-0.159800610888,0.764123016073,0.448298950891
1431532044307947094,0.0,0.0,116.1,0.435439814094,-0.159800610888,0.764123016073,0.448298950891
1431532044337889673,0.0,0.0,116.1,0.435439814094,-0.159800610888,0.764123016073,0.448298950891
1431532044366465404,0.0,0.0,116.1,0.422273451514,-0.126786915507,0.791443509412,0.423352550024
1431532044387228775,0.0,0.0,116.1,0.422273451514,-0.126786915507,0.791443509412,0.423352550024
1431532044407282086,0.0,0.0,116.1,0.422273451514,-0.126786915507,0.791443509412,0.423352550024
1431532044427066297,0.0,0.0,116.1,0.400429641954,-0.132601171472,0.794476791582,0.436897766997
1431532044448841671,0.0,0.0,116.1,0.404603902772,-0.119258755203,0.808518526223,0.41033014016
1431532044471432017,0.0,0.0,116.1,0.404603902772,-0.119258755203,0.808518526223,0.41033014016
1431532044491413186,0.0,0.0,116.1,0.404603902772,-0.119258755203,0.808518526223,0.41033014016
1431532044511718878,0.0,0.0,116.1,0.359293317436,-0.0869262993263,0.836563839098,0.404367498255
1431532044533731617,0.0,0.0,116.1,0.359293317436,-0.0869262993263,0.836563839098,0.404367498255
1431532044554205114,0.0,0.0,116.1,0.359293317436,-0.0869262993263,0.836563839098,0.404367498255
1431532044573492942,0.0,0.0,116.1,0.359293317436,-0.0869262993263,0.836563839098,0.404367498255
1431532044592322857,0.0,0.0,116.1,0.345739527391,-0.0759237335676,0.84867625123,0.392999219437
1431532044610466997,0.0,0.0,116.1,0.345739527391,-0.0759237335676,0.84867625123,0.392999219437
1431532044631882408,0.0,0.0,115.8,0.345739527391,-0.0759237335676,0.84867625123,0.392999219437
1431532044655759694,0.0,0.0,115.8,0.323100106012,-0.0755518075586,0.859064471973,0.389751817011
1431532044673163900,0.0,0.0,115.8,0.323100106012,-0.0755518075586,0.859064471973,0.389751817011
1431532044694436895,0.0,0.0,115.8,0.323100106012,-0.0755518075586,0.859064471973,0.389751817011
1431532044708405763,0.0,0.0,115.8,0.323100106012,-0.0755518075586,0.859064471973,0.389751817011
1431532044732250543,0.0,0.0,115.8,0.303265402241,-0.0606433771133,0.871501124073,0.380576230675
1431532044753060196,0.0,0.0,115.8,0.303265402241,-0.0606433771133,0.871501124073,0.380576230675
1431532044771255074,0.0,0.0,115.8,0.303265402241,-0.0606433771133,0.871501124073,0.380576230675
1431532044790187490,0.0,0.0,115.8,0.303265402241,-0.0606433771133,0.871501124073,0.380576230675
1431532044809207566,0.0,0.0,115.6,0.282812646976,-0.0647861576734,0.877658820329,0.381490177571
1431532044826046472,0.0,0.0,115.6,0.282812646976,-0.0647861576734,0.877658820329,0.381490177571
1431532044843971318,0.0,0.0,115.6,0.282812646976,-0.0647861576734,0.877658820329,0.381490177571
1431532044866160117,0.0,0.0,115.6,0.249470124894,-0.0656660213526,0.883658049597,0.390641884349
1431532044889111887,0.0,0.0,115.8,0.249584295982,-0.0652307348862,0.884338157793,0.389099798377
1431532044906976458,0.0,0.0,115.8,0.249584295982,-0.0652307348862,0.884338157793,0.389099798377
1431532044929056416,0.0,0.0,115.8,0.249584295982,-0.0652307348862,0.884338157793,0.389099798377
1431532044950317764,0.0,0.0,115.8,0.226860978451,-0.0746979642532,0.887336305389,0.394447197647
1431532044970638872,0.0,0.0,115.6,0.226860978451,-0.0746979642532,0.887336305389,0.394447197647
1431532044987324191,0.0,0.0,115.6,0.226860978451,-0.0746979642532,0.887336305389,0.394447197647
1431532045006002852,0.0,0.0,115.6,0.195682561119,-0.0631929630855,0.893663937897,0.398848029696
1431532045025303994,0.0,0.0,115.6,0.196010589801,-0.0621680303347,0.895738995351,0.394165748001
1431532045055597038,0.0,0.0,115.6,0.196010589801,-0.0621680303347,0.895738995351,0.394165748001
1431532045081227931,0.0,0.0,115.6,0.158344198176,-0.0668469818249,0.899960460181,0.400661660302
1431532045100238498,0.0,0.0,115.6,0.158634218572,-0.0661557916818,0.90169922637,0.396733035036
1431532045118954571,0.0,0.0,115.6,0.158634218572,-0.0661557916818,0.90169922637,0.396733035036
1431532045146439216,0.0,0.0,115.8,0.158634218572,-0.0661557916818,0.90169922637,0.396733035036
1431532045166351664,0.0,0.0,115.8,0.150039061168,-0.0556486828575,0.906249479156,0.391284277412
1431532045189741964,0.0,0.0,115.8,0.150039061168,-0.0556486828575,0.906249479156,0.391284277412
1431532045210052423,0.0,0.0,115.6,0.150039061168,-0.0556486828575,0.906249479156,0.391284277412
1431532045232230859,0.0,0.0,115.6,0.113313752997,-0.0773699748667,0.907434547414,0.397160449353
1431532045251127008,0.0,0.0,115.6,0.113246226092,-0.0774687801971,0.907087790113,0.397951782756
1431532045279018597,0.0,0.0,115.6,0.113246226092,-0.0774687801971,0.907087790113,0.397951782756
1431532045298264081,0.0,0.0,115.6,0.113246226092,-0.0774687801971,0.907087790113,0.397951782756
1431532045321755725,0.0,0.0,115.6,0.0897517675493,-0.0660821893996,0.908298996029,0.403200568301
1431532045338833220,0.0,0.0,115.6,0.0897517675493,-0.0660821893996,0.908298996029,0.403200568301
1431532045368462540,0.0,0.0,115.6,0.0897517675493,-0.0660821893996,0.908298996029,0.403200568301
1431532045390058444,0.0,0.0,115.3,0.0842981963075,-0.0526086030623,0.908935278943,0.404923212074
1431532045410160040,0.0,0.0,115.3,0.0842981963075,-0.0526086030623,0.908935278943,0.404923212074
1431532045430731905,0.0,0.0,115.3,0.0842981963075,-0.0526086030623,0.908935278943,0.404923212074
1431532045450514986,0.0,0.0,115.3,0.0842981963075,-0.0526086030623,0.908935278943,0.404923212074
1431532045469281687,0.0,0.0,115.6,0.0561521729185,-0.0642171868804,0.908132260899,0.409901065015
1431532045487362256,0.0,0.0,115.6,0.0561521729185,-0.0642171868804,0.908132260899,0.409901065015
1431532045508137570,0.0,0.0,115.6,0.0561521729185,-0.0642171868804,0.908132260899,0.409901065015
1431532045527286487,0.0,0.0,115.6,0.0485578335491,-0.0789055901233,0.907023284388,0.410761252099
1431532045545891718,0.0,0.0,115.6,0.0480751690162,-0.0792005901225,0.904498468458,0.416291442629
1431532045567285132,0.0,0.0,115.6,0.0480751690162,-0.0792005901225,0.904498468458,0.416291442629
1431532045589792906,0.0,0.0,115.6,0.0480751690162,-0.0792005901225,0.904498468458,0.416291442629
1431532045613045677,0.0,0.0,115.6,0.0227789681001,-0.0807578724027,0.901384990048,0.424810998413
1431532045630119615,0.0,0.0,115.6,0.0227789681001,-0.0807578724027,0.901384990048,0.424810998413
1431532045647646213,0.0,0.0,115.6,0.0227789681001,-0.0807578724027,0.901384990048,0.424810998413
1431532045664668027,0.0,0.0,115.6,0.0227789681001,-0.0807578724027,0.901384990048,0.424810998413
1431532045683713218,0.0,0.0,115.6,0.0170778864948,-0.0867374722704,0.9009290751,0.424866753626
1431532045706993734,0.0,0.0,115.6,0.0163964781422,-0.0868688598263,0.897566146729,0.431925883622
1431532045724051738,0.0,0.0,115.6,0.0163964781422,-0.0868688598263,0.897566146729,0.431925883622
1431532045742299693,0.0,0.0,115.6,0.0163964781422,-0.0868688598263,0.897566146729,0.431925883622
1431532045764925986,0.0,0.0,115.6,0.0101759565419,-0.0877749521425,0.897660250288,0.431738442507
1431532045784354974,0.0,0.0,115.3,0.00910339482005,-0.087892664756,0.892321450431,0.442667411027
1431532045804687125,0.0,0.0,115.3,0.00910339482005,-0.087892664756,0.892321450431,0.442667411027
1431532045823331457,0.0,0.0,115.3,0.00910339482005,-0.087892664756,0.892321450431,0.442667411027
1431532045846698827,0.0,0.0,115.3,-0.0121808753077,-0.0933590257488,0.887107235597,0.45185890623
1431532045865717235,0.0,0.0,115.3,-0.0121808753077,-0.0933590257488,0.887107235597,0.45185890623
1431532045882339153,0.0,0.0,115.3,-0.0121808753077,-0.0933590257488,0.887107235597,0.45185890623
1431532045899837246,0.0,0.0,115.3,-0.0121808753077,-0.0933590257488,0.887107235597,0.45185890623
1431532045918847859,0.0,0.0,115.3,-0.00495186877086,-0.0964369022493,0.882183581745,0.460898612473
1431532045940561027,0.0,0.0,115.3,-0.00495186877086,-0.0964369022493,0.882183581745,0.460898612473
1431532045973484208,0.0,0.0,115.0,-0.00495186877086,-0.0964369022493,0.882183581745,0.460898612473
1431532045981738727,0.0,0.0,115.0,-0.0106785476255,-0.0919959684374,0.877103234207,0.471288263121
1431532046014220779,0.0,0.0,115.0,-0.0106785476255,-0.0919959684374,0.877103234207,0.471288263121
1431532046032675376,0.0,0.0,115.0,-0.0106785476255,-0.0919959684374,0.877103234207,0.471288263121
1431532046052858665,0.0,0.0,115.0,-0.00702012878686,-0.108294624136,0.869091138266,0.482600855327
1431532046070838902,0.0,0.0,115.0,-0.00702012878686,-0.108294624136,0.869091138266,0.482600855327
1431532046092367838,0.0,0.0,115.0,-0.00702012878686,-0.108294624136,0.869091138266,0.482600855327
1431532046114159182,0.0,0.0,115.0,-0.00702012878686,-0.108294624136,0.869091138266,0.482600855327
1431532046137653834,0.0,0.0,115.3,-0.00328152648459,-0.113849660075,0.863489196144,0.491338879621
1431532046154738192,0.0,0.0,115.3,-0.00328152648459,-0.113849660075,0.863489196144,0.491338879621
1431532046172636363,0.0,0.0,115.3,-0.00328152648459,-0.113849660075,0.863489196144,0.491338879621
1431532046194635779,0.0,0.0,115.3,-0.00150882797017,-0.124730955168,0.861746431302,0.491765188274
1431532046213800973,0.0,0.0,115.3,-0.00227034689214,-0.124719418152,0.85872788832,0.497017430361
1431532046231893011,0.0,0.0,115.3,-0.00227034689214,-0.124719418152,0.85872788832,0.497017430361
1431532046254070110,0.0,0.0,115.3,-0.00227034689214,-0.124719418152,0.85872788832,0.497017430361
1431532046276287436,0.0,0.0,115.3,-0.00108940416476,-0.124813039656,0.855599353067,0.502364673681
1431532046294560761,0.0,0.0,115.0,-0.00108940416476,-0.124813039656,0.855599353067,0.502364673681
1431532046319679658,0.0,0.0,115.0,-0.00108940416476,-0.124813039656,0.855599353067,0.502364673681
1431532046342413043,0.0,0.0,115.0,0.0144522850153,-0.137607472236,0.852793578814,0.50358557066
1431532046360638397,0.0,0.0,115.0,0.0140921630636,-0.13764481791,0.851472945227,0.505815320634
1431532046382409252,0.0,0.0,115.3,0.0140921630636,-0.13764481791,0.851472945227,0.505815320634
1431532046400368901,0.0,0.0,115.3,0.0140921630636,-0.13764481791,0.851472945227,0.505815320634
1431532046424630252,0.0,0.0,115.3,3.23686436777e-06,-0.138772215141,0.850465851631,0.507395415337
1431532046446323831,0.0,0.0,115.3,3.23686436777e-06,-0.138772215141,0.850465851631,0.507395415337
1431532046467435397,0.0,0.0,115.6,3.23686436777e-06,-0.138772215141,0.850465851631,0.507395415337
1431532046489675331,0.0,0.0,115.6,0.0112720895031,-0.150190006613,0.847814897303,0.508454326191
1431532046508464683,0.0,0.0,115.6,0.0110100743624,-0.150209441616,0.846926637442,0.509932517794
1431532046529381778,0.0,0.0,115.6,0.0110100743624,-0.150209441616,0.846926637442,0.509932517794
1431532046551393675,0.0,0.0,115.3,0.0110100743624,-0.150209441616,0.846926637442,0.509932517794
1431532046571583500,0.0,0.0,115.3,0.0199919525258,-0.130396257336,0.850770766833,0.50871036967
1431532046589372219,0.0,0.0,115.3,0.0199919525258,-0.130396257336,0.850770766833,0.50871036967
1431532046610249929,0.0,0.0,115.3,0.0199919525258,-0.130396257336,0.850770766833,0.50871036967
1431532046628235742,0.0,0.0,115.3,0.0199919525258,-0.130396257336,0.850770766833,0.50871036967
1431532046649204514,0.0,0.0,115.3,0.0314732236023,-0.136791874908,0.84996869463,0.507789953922
1431532046665275682,0.0,0.0,115.3,0.0314732236023,-0.136791874908,0.84996869463,0.507789953922
1431532046683263989,0.0,0.0,115.3,0.0314732236023,-0.136791874908,0.84996869463,0.507789953922
1431532046701155960,0.0,0.0,115.6,0.0314732236023,-0.136791874908,0.84996869463,0.507789953922
1431532046724323460,0.0,0.0,115.6,0.0319750888361,-0.124138499544,0.852236990343,0.507207392411
1431532046745313079,0.0,0.0,115.6,0.0319750888361,-0.124138499544,0.852236990343,0.507207392411
1431532046758969998,0.0,0.0,115.6,0.0319750888361,-0.124138499544,0.852236990343,0.507207392411
1431532046784294144,0.0,0.0,115.6,0.0235411341066,-0.11630776204,0.853893474979,0.506738840906
1431532046801333208,0.0,0.0,115.3,0.0233382059613,-0.116348651253,0.853008198436,0.508227638855
1431532046822241270,0.0,0.0,115.3,0.0233382059613,-0.116348651253,0.853008198436,0.508227638855
1431532046842038167,0.0,0.0,115.3,0.0233382059613,-0.116348651253,0.853008198436,0.508227638855
1431532046863959046,0.0,0.0,115.3,0.0458979862138,-0.109176807854,0.854050783675,0.506528437891
1431532046882112163,0.0,0.0,115.3,0.0458979862138,-0.109176807854,0.854050783675,0.506528437891
1431532046907442285,0.0,0.0,115.3,0.0458979862138,-0.109176807854,0.854050783675,0.506528437891
1431532046922104816,0.0,0.0,115.3,0.0537592193764,-0.102707349956,0.854659900846,0.506080626464
1431532046940942086,0.0,0.0,115.3,0.0537592193764,-0.102707349956,0.854659900846,0.506080626464
1431532046962058429,0.0,0.0,115.6,0.0537592193764,-0.102707349956,0.854659900846,0.506080626464
1431532046981290875,0.0,0.0,115.6,0.0537592193764,-0.102707349956,0.854659900846,0.506080626464
1431532047003960587,0.0,0.0,115.6,0.0641509726535,-0.0871915226211,0.858498444334,0.501261121739
1431532047022120889,0.0,0.0,115.6,0.0641509726535,-0.0871915226211,0.858498444334,0.501261121739
1431532047047540149,0.0,0.0,115.6,0.0641509726535,-0.0871915226211,0.858498444334,0.501261121739
1431532047073711922,0.0,0.0,115.6,0.0532204176699,-0.07492678855,0.860485362877,0.501117255515
1431532047091794139,0.0,0.0,115.6,0.0533510422465,-0.0748338345308,0.861358224381,0.499615424894
1431532047121880990,0.0,0.0,115.8,0.0533510422465,-0.0748338345308,0.861358224381,0.499615424894
1431532047145289405,0.0,0.0,115.8,0.0533510422465,-0.0748338345308,0.861358224381,0.499615424894
1431532047166858334,0.0,0.0,115.8,0.0418001473523,-0.0601458090672,0.863699552432,0.498656507489
1431532047183744805,0.0,0.0,115.8,0.0418001473523,-0.0601458090672,0.863699552432,0.498656507489
1431532047206278966,0.0,0.0,115.8,0.0418001473523,-0.0601458090672,0.863699552432,0.498656507489
1431532047230173110,0.0,0.0,115.8,0.060079977512,-0.0530210788661,0.866652855501,0.492434756642
1431532047256702884,0.0,0.0,115.8,0.060079977512,-0.0530210788661,0.866652855501,0.492434756642
1431532047275665610,0.0,0.0,115.8,0.060079977512,-0.0530210788661,0.866652855501,0.492434756642
1431532047300841218,0.0,0.0,115.8,0.0581139205351,-0.0459169411519,0.867292805953,0.492257651538
1431532047321508749,0.0,0.0,115.8,0.0584725742679,-0.0454593368099,0.871130266592,0.485434305939
1431532047347226419,0.0,0.0,115.8,0.0584725742679,-0.0454593368099,0.871130266592,0.485434305939
1431532047368323633,0.0,0.0,115.6,0.0584725742679,-0.0454593368099,0.871130266592,0.485434305939
1431532047386620228,0.0,0.0,115.6,0.0379283573445,-0.0324707185993,0.877633512903,0.476724772979
1431532047409426471,0.0,0.0,115.6,0.0379283573445,-0.0324707185993,0.877633512903,0.476724772979
1431532047430383005,0.0,0.0,115.6,0.0379283573445,-0.0324707185993,0.877633512903,0.476724772979
1431532047453954292,0.0,0.0,116.1,0.0379940104948,-0.0305245767252,0.877729541324,0.476671330867
1431532047481931802,0.0,0.0,116.1,0.0382060775309,-0.030258722006,0.881034252984,0.470535174509
1431532047505190333,0.0,0.0,116.1,0.0382060775309,-0.030258722006,0.881034252984,0.470535174509
1431532047524504927,0.0,0.0,116.1,0.0382060775309,-0.030258722006,0.881034252984,0.470535174509
1431532047544942396,0.0,0.0,116.1,0.0382901941348,-0.0189768213886,0.885962481424,0.461783740286
1431532047566070043,0.0,0.0,116.1,0.0382901941348,-0.0189768213886,0.885962481424,0.461783740286
1431532047587562131,0.0,0.0,116.1,0.0382901941348,-0.0189768213886,0.885962481424,0.461783740286
1431532047610012483,0.0,0.0,116.1,0.0326411114234,-0.00718397334401,0.886389988477,0.461731238601
1431532047627967931,0.0,0.0,116.1,0.0326904445516,-0.00695603787944,0.889590241505,0.455535015769
1431532047651882724,0.0,0.0,116.1,0.0326904445516,-0.00695603787944,0.889590241505,0.455535015769
1431532047674532134,0.0,0.0,116.1,0.0326904445516,-0.00695603787944,0.889590241505,0.455535015769
1431532047694529952,0.0,0.0,116.3,0.0292486660067,0.00388944624634,0.894085193762,0.446923991345
1431532047711486325,0.0,0.0,116.3,0.0292486660067,0.00388944624634,0.894085193762,0.446923991345
1431532047728452995,0.0,0.0,116.3,0.0292486660067,0.00388944624634,0.894085193762,0.446923991345
1431532047747512346,0.0,0.0,116.3,0.0292486660067,0.00388944624634,0.894085193762,0.446923991345
1431532047769372344,0.0,0.0,116.3,0.0263520889201,0.0162586297359,0.898686944359,0.437496286165
1431532047787377240,0.0,0.0,116.1,0.0263520889201,0.0162586297359,0.898686944359,0.437496286165
1431532047808553405,0.0,0.0,116.1,0.0263520889201,0.0162586297359,0.898686944359,0.437496286165
1431532047828666793,0.0,0.0,116.1,0.0227351454537,0.0267525655315,0.898503864907,0.437559388135
1431532047846482735,0.0,0.0,116.1,0.022594829668,0.0268711792371,0.900781444602,0.432851247497
1431532047864327910,0.0,0.0,116.1,0.022594829668,0.0268711792371,0.900781444602,0.432851247497
1431532047886470197,0.0,0.0,116.1,0.022594829668,0.0268711792371,0.900781444602,0.432851247497
1431532047906865547,0.0,0.0,116.1,0.019884038627,0.0397849831767,0.902212930924,0.428991383824
1431532047931796727,0.0,0.0,116.1,0.019884038627,0.0397849831767,0.902212930924,0.428991383824
1431532047954354973,0.0,0.0,116.1,0.019884038627,0.0397849831767,0.902212930924,0.428991383824
1431532047975236270,0.0,0.0,116.1,0.0177062555505,0.0514305793071,0.90161126099,0.429113642386
1431532047994257376,0.0,0.0,116.1,0.0174817934107,0.0515073089244,0.903474093343,0.42517754725
1431532048015423871,0.0,0.0,116.1,0.0174817934107,0.0515073089244,0.903474093343,0.42517754725
1431532048033385345,0.0,0.0,115.8,0.0174817934107,0.0515073089244,0.903474093343,0.42517754725
1431532048059957625,0.0,0.0,115.8,0.0139382022824,0.0569535098003,0.905333247769,0.420634918573
1431532048079719752,0.0,0.0,115.8,0.0139382022824,0.0569535098003,0.905333247769,0.420634918573
1431532048105186775,0.0,0.0,115.8,0.0139382022824,0.0569535098003,0.905333247769,0.420634918573
1431532048129467475,0.0,0.0,115.8,0.0141663671915,0.0644409958661,0.907001923311,0.415925694328
1431532048153115297,0.0,0.0,115.8,0.0141663671915,0.0644409958661,0.907001923311,0.415925694328
1431532048172071463,0.0,0.0,115.8,0.0141663671915,0.0644409958661,0.907001923311,0.415925694328
1431532048199266272,0.0,0.0,115.8,0.0120222261302,0.0702012411321,0.906523527604,0.416103767975
1431532048221116634,0.0,0.0,115.8,0.0115320887687,0.0702834198531,0.909404914722,0.409768169703
1431532048242594916,0.0,0.0,115.8,0.0115320887687,0.0702834198531,0.909404914722,0.409768169703
1431532048264272905,0.0,0.0,115.8,0.0158596774586,0.0692990866172,0.90953184767,0.409509371443
1431532048283724646,0.0,0.0,115.8,0.0154967967139,0.0693811362452,0.911662481931,0.404743902071
1431532048305462125,0.0,0.0,115.8,0.0154967967139,0.0693811362452,0.911662481931,0.404743902071
1431532048330521636,0.0,0.0,115.8,0.0154967967139,0.0693811362452,0.911662481931,0.404743902071
1431532048357111883,0.0,0.0,115.8,0.0248521484368,0.0595258644302,0.915587187941,0.396912009721
1431532048375474018,0.0,0.0,116.1,0.0248521484368,0.0595258644302,0.915587187941,0.396912009721
1431532048397545974,0.0,0.0,116.1,0.0248521484368,0.0595258644302,0.915587187941,0.396912009721
1431532048421128860,0.0,0.0,116.1,0.0248521484368,0.0595258644302,0.915587187941,0.396912009721
1431532048444241732,0.0,0.0,116.1,0.045028755145,0.0576197316771,0.919689779155,0.38577595551
1431532048464594503,0.0,0.0,116.1,0.045028755145,0.0576197316771,0.919689779155,0.38577595551
1431532048490869294,0.0,0.0,116.1,0.045028755145,0.0576197316771,0.919689779155,0.38577595551
1431532048509516253,0.0,0.0,116.1,0.0489041326528,0.0458755416287,0.923875204541,0.376773707846
1431532048536998650,0.0,0.0,115.8,0.0489041326528,0.0458755416287,0.923875204541,0.376773707846
1431532048554984464,0.0,0.0,115.8,0.0489041326528,0.0458755416287,0.923875204541,0.376773707846
1431532048577168392,0.0,0.0,115.8,0.0501276685476,0.0142988650343,0.924555990882,0.37746387778
1431532048597470046,0.0,0.0,115.8,0.0499493306043,0.0149098983052,0.9290961997,0.366146160716
1431532048619704851,0.0,0.0,116.1,0.0499493306043,0.0149098983052,0.9290961997,0.366146160716
1431532048640529059,0.0,0.0,116.1,0.0499493306043,0.0149098983052,0.9290961997,0.366146160716
1431532048660618344,0.0,0.0,116.1,0.057001423097,-0.00756672441596,0.928622343447,0.366543484047
1431532048687088294,0.0,0.0,116.1,0.0571247409132,-0.00657126540806,0.934874876278,0.350289234992
1431532048707437512,0.0,0.0,115.8,0.0571247409132,-0.00657126540806,0.934874876278,0.350289234992
1431532048729427680,0.0,0.0,115.8,0.0571247409132,-0.00657126540806,0.934874876278,0.350289234992
1431532048751984943,0.0,0.0,115.8,0.0554010692426,-0.0159083397395,0.941223995571,0.332828839517
1431532048773072941,0.0,0.0,115.8,0.0554010692426,-0.0159083397395,0.941223995571,0.332828839517
1431532048802345530,0.0,0.0,116.1,0.0554010692426,-0.0159083397395,0.941223995571,0.332828839517
1431532048817234995,0.0,0.0,116.1,0.0357586681604,-0.0348335028951,0.941231995614,0.33405130618
1431532048843139430,0.0,0.0,116.1,0.0363608477501,-0.0342044444984,0.946915830635,0.317582043604
1431532048863659917,0.0,0.0,116.3,0.0363608477501,-0.0342044444984,0.946915830635,0.317582043604
1431532048892731766,0.0,0.0,116.3,0.0338813881851,-0.0333780323987,0.947042430897,0.31756667421
1431532048908735631,0.0,0.0,116.3,0.0344584648173,-0.0327819418978,0.952437831196,0.300998565103
1431532048929824720,0.0,0.0,116.3,0.0344584648173,-0.0327819418978,0.952437831196,0.300998565103
1431532048947823533,0.0,0.0,116.6,0.0344584648173,-0.0327819418978,0.952437831196,0.300998565103
1431532048968889675,0.0,0.0,116.6,0.0344584648173,-0.0327819418978,0.952437831196,0.300998565103
1431532048985065887,0.0,0.0,116.6,0.0295042871964,-0.0414836171793,0.957032716924,0.285476768373
1431532049005893235,0.0,0.0,116.6,0.0295042871964,-0.0414836171793,0.957032716924,0.285476768373
1431532049023630163,0.0,0.0,116.6,0.0295042871964,-0.0414836171793,0.957032716924,0.285476768373
1431532049042707081,0.0,0.0,116.1,0.0249894667905,-0.0383317362208,0.957335797127,0.285332045319
1431532049066162757,0.0,0.0,116.1,0.0255550733506,-0.0379569977503,0.961461242827,0.271106036616
1431532049090605970,0.0,0.0,116.1,0.0255550733506,-0.0379569977503,0.961461242827,0.271106036616
1431532049110489889,0.0,0.0,116.1,0.0255550733506,-0.0379569977503,0.961461242827,0.271106036616
1431532049136368913,0.0,0.0,116.1,0.0224675090189,-0.0411172064949,0.965309909949,0.256868378987
1431532049158124463,0.0,0.0,116.1,0.0224675090189,-0.0411172064949,0.965309909949,0.256868378987
1431532049178597829,0.0,0.0,116.1,0.0224675090189,-0.0411172064949,0.965309909949,0.256868378987
1431532049199673365,0.0,0.0,115.8,0.0185958667056,-0.0455022193987,0.965186041608,0.256903964266
1431532049216985967,0.0,0.0,115.8,0.0191895788875,-0.0452550360829,0.968464499906,0.244254486535
1431532049241833666,0.0,0.0,115.8,0.0191895788875,-0.0452550360829,0.968464499906,0.244254486535
1431532049260376732,0.0,0.0,115.8,0.0191895788875,-0.0452550360829,0.968464499906,0.244254486535
1431532049288616723,0.0,0.0,115.6,0.0303767243269,-0.0413738606734,0.970624934063,0.235058919523
1431532049307998892,0.0,0.0,115.6,0.0303767243269,-0.0413738606734,0.970624934063,0.235058919523
1431532049333433520,0.0,0.0,115.6,0.0303767243269,-0.0413738606734,0.970624934063,0.235058919523
1431532049356837789,0.0,0.0,116.3,0.0128245012237,-0.0406332934774,0.972356271267,0.229581683408
1431532049377222049,0.0,0.0,116.3,0.0128245012237,-0.0406332934774,0.972356271267,0.229581683408
1431532049399835201,0.0,0.0,116.3,0.0128245012237,-0.0406332934774,0.972356271267,0.229581683408
1431532049421932172,0.0,0.0,116.3,0.0185159692775,-0.0392820404583,0.972294188826,0.229691294031
1431532049440857900,0.0,0.0,116.1,0.0188578873027,-0.0391190478837,0.974260597477,0.221202098505
1431532049461525846,0.0,0.0,116.1,0.0188578873027,-0.0391190478837,0.974260597477,0.221202098505
1431532049478810475,0.0,0.0,116.1,0.0188578873027,-0.0391190478837,0.974260597477,0.221202098505
1431532049497860515,0.0,0.0,116.1,0.0276286914108,-0.043770520794,0.973779772854,0.22152595988
